{
  "3397": [
    {
      "name": "丸亀製麺イオン札幌桑園",
      "address": "北海道札幌市中央区北8条西14-28イオン札幌桑園1F",
      "lat": 43.06941399999999,
      "lon": 141.3333108
    },
    {
      "name": "丸亀製麺札幌伏見",
      "address": "北海道札幌市中央区南16条西19-1-10",
      "lat": 43.0369264,
      "lon": 141.330901
    },
    {
      "name": "丸亀製麺札幌新川",
      "address": "北海道札幌市北区新川3条7-1-58",
      "lat": 43.1031914,
      "lon": 141.3131409
    },
    {
      "name": "丸亀製麺札幌",
      "address": "北海道札幌市東区伏古1条4-1-1",
      "lat": 43.0812117,
      "lon": 141.3889621
    },
    {
      "name": "丸亀製麺札幌栄町",
      "address": "北海道札幌市東区北41条東13-2-1",
      "lat": 43.1121759,
      "lon": 141.3626753
    },
    {
      "name": "丸亀製麺アリオ札幌",
      "address": "北海道札幌市東区北7条東9-2-20アリオ札幌2F",
      "lat": 43.072236,
      "lon": 141.3701987
    },
    {
      "name": "丸亀製麺南郷",
      "address": "北海道札幌市白石区南郷通20丁目南3-5",
      "lat": 43.0294766,
      "lon": 141.4374874
    },
    {
      "name": "丸亀製麺札幌石山",
      "address": "北海道札幌市南区石山1条7-8-3",
      "lat": 42.962265,
      "lon": 141.3193207
    },
    {
      "name": "丸亀製麺カテプリ新さっぽろ",
      "address": "北海道札幌市厚別区厚別中央2条5-7-1カテプリ新さっぽろB2F",
      "lat": 43.0377228,
      "lon": 141.4729792
    },
    {
      "name": "丸亀製麺新札幌",
      "address": "北海道札幌市厚別区厚別東5条2-1-38",
      "lat": 43.0467873,
      "lon": 141.4782562
    },
    {
      "name": "丸亀製麺西宮の沢",
      "address": "北海道札幌市手稲区西宮の沢5条1-12-5",
      "lat": 43.0947723,
      "lon": 141.2615355
    },
    {
      "name": "丸亀製麺札幌美しが丘",
      "address": "北海道札幌市清田区美しが丘4条6-1-15",
      "lat": 42.9784813,
      "lon": 141.4573669
    },
    {
      "name": "丸亀製麺函館西",
      "address": "北海道函館市亀田本町36-6",
      "lat": 41.8076842,
      "lon": 140.7356749
    },
    {
      "name": "丸亀製麺函館",
      "address": "北海道函館市東山2-2-24",
      "lat": 41.8050468,
      "lon": 140.772945
    },
    {
      "name": "丸亀製麺小樽",
      "address": "北海道小樽市信香町3-2",
      "lat": 43.1855455,
      "lon": 141.0144328
    },
    {
      "name": "丸亀製麺旭川",
      "address": "北海道旭川市4条通18-546",
      "lat": 43.7641421,
      "lon": 142.3765929
    },
    {
      "name": "丸亀製麺旭川春光",
      "address": "北海道旭川市花咲町5-2272-67",
      "lat": 43.7954266,
      "lon": 142.3758007
    },
    {
      "name": "丸亀製麺釧路",
      "address": "北海道釧路市鳥取大通7-7-22",
      "lat": 43.0162987,
      "lon": 144.3389323
    },
    {
      "name": "丸亀製麺帯広",
      "address": "北海道帯広市西14条南1-2-13",
      "lat": 42.93018259999999,
      "lon": 143.1811527
    },
    {
      "name": "丸亀製麺苫小牧",
      "address": "北海道苫小牧市花園町3-16-19",
      "lat": 42.6357809,
      "lon": 141.5661778
    },
    {
      "name": "丸亀製麺江別",
      "address": "北海道江別市高砂町34-11",
      "lat": 43.10261130000001,
      "lon": 141.5376718
    },
    {
      "name": "丸亀製麺千歳",
      "address": "北海道千歳市清水町6-33-1",
      "lat": 42.8257224,
      "lon": 141.6537639
    },
    {
      "name": "丸亀製麺滝川",
      "address": "北海道滝川市東町1-4-28",
      "lat": 43.5545117,
      "lon": 141.9221833
    },
    {
      "name": "丸亀製麺登別",
      "address": "北海道登別市若草町4-23-4",
      "lat": 42.3730182,
      "lon": 141.0594662
    },
    {
      "name": "丸亀製麺恵庭",
      "address": "北海道恵庭市有明町1-3-13",
      "lat": 42.8882545,
      "lon": 141.570356
    },
    {
      "name": "丸亀製麺新青森",
      "address": "青森県青森市大字新田字忍28-3",
      "lat": 40.8338579,
      "lon": 140.6954773
    },
    {
      "name": "丸亀製麺青森",
      "address": "青森県青森市第二問屋町2-3-25",
      "lat": 40.7940979,
      "lon": 140.7599335
    },
    {
      "name": "丸亀製麺弘前",
      "address": "青森県弘前市大字高田1-2-3",
      "lat": 40.5965051,
      "lon": 140.5012141
    },
    {
      "name": "丸亀製麺八戸",
      "address": "青森県八戸市城下4-11-18",
      "lat": 40.5205134,
      "lon": 141.4929808
    },
    {
      "name": "丸亀製麺八戸新井田",
      "address": "青森県八戸市新井田西2-24-26",
      "lat": 40.499287,
      "lon": 141.5200665
    },
    {
      "name": "丸亀製麺五所川原",
      "address": "青森県五所川原市中央2-14",
      "lat": 40.800464,
      "lon": 140.4484397
    },
    {
      "name": "丸亀製麺アクロスプラザ盛岡",
      "address": "岩手県盛岡市津志田南1丁目1-10アクロスプラザ盛岡",
      "lat": 39.6590297,
      "lon": 141.1614941
    },
    {
      "name": "丸亀製麺盛岡",
      "address": "岩手県盛岡市青山2-5-60",
      "lat": 39.7262829,
      "lon": 141.11512
    },
    {
      "name": "丸亀製麺花巻",
      "address": "岩手県花巻市上小舟渡351-1",
      "lat": 39.3973525,
      "lon": 141.1226136
    },
    {
      "name": "丸亀製麺北上",
      "address": "岩手県北上市柳原町1-2-24",
      "lat": 39.2922696,
      "lon": 141.1108012
    },
    {
      "name": "丸亀製麺一関中里",
      "address": "岩手県一関市中里字神明21-2",
      "lat": 38.9408235,
      "lon": 141.1418195
    },
    {
      "name": "丸亀製麺仙台中野栄",
      "address": "宮城県仙台市宮城野区出花2-70-10",
      "lat": 38.2804891,
      "lon": 140.9872963
    },
    {
      "name": "丸亀製麺東仙台",
      "address": "宮城県仙台市宮城野区東仙台4-6-32",
      "lat": 38.275547,
      "lon": 140.9081053
    },
    {
      "name": "丸亀製麺仙台東口",
      "address": "宮城県仙台市宮城野区榴岡2-1-25仙台BiVi1F",
      "lat": 38.2610967,
      "lon": 140.8834799
    },
    {
      "name": "丸亀製麺仙台若林",
      "address": "宮城県仙台市若林区大和町5-30-15",
      "lat": 38.2474197,
      "lon": 140.9244311
    },
    {
      "name": "丸亀製麺仙台西多賀",
      "address": "宮城県仙台市太白区泉崎2-6-35",
      "lat": 38.2233963,
      "lon": 140.8649445
    },
    {
      "name": "丸亀製麺南仙台",
      "address": "宮城県仙台市太白区西中田7-10-36",
      "lat": 38.1934098,
      "lon": 140.8738636
    },
    {
      "name": "丸亀製麺ララガーデン長町",
      "address": "宮城県仙台市太白区長町7-20-5ララガーデン長町3F",
      "lat": 38.22493240000001,
      "lon": 140.8756907
    },
    {
      "name": "丸亀製麺仙台泉",
      "address": "宮城県仙台市泉区上谷刈1-7-10",
      "lat": 38.3158855,
      "lon": 140.8746674
    },
    {
      "name": "丸亀製麺仙台中山",
      "address": "宮城県仙台市泉区南中山1-36-2",
      "lat": 38.2990535,
      "lon": 140.8295268
    },
    {
      "name": "丸亀製麺石巻",
      "address": "宮城県石巻市中里1-1-2",
      "lat": 38.441415,
      "lon": 141.304824
    },
    {
      "name": "丸亀製麺イオンモール石巻",
      "address": "宮城県石巻市茜平4-104イオンモール石巻2F",
      "lat": 38.4477185,
      "lon": 141.2660009
    },
    {
      "name": "丸亀製麺名取",
      "address": "宮城県名取市飯野坂3-7-22",
      "lat": 38.1559982,
      "lon": 140.8868561
    },
    {
      "name": "丸亀製麺イオンモール名取",
      "address": "宮城県名取市杜せきのした5-3-1イオンモール名取2F",
      "lat": 38.1634725,
      "lon": 140.8955564
    },
    {
      "name": "丸亀製麺古川中島",
      "address": "宮城県大崎市古川中島町1-15",
      "lat": 38.5662671,
      "lon": 140.9571193
    },
    {
      "name": "コナズ珈琲利府",
      "address": "宮城県宮城郡利府町利府八幡崎前100-1",
      "lat": 38.3248512,
      "lon": 140.971965
    },
    {
      "name": "丸亀製麺イオンモール利府",
      "address": "宮城県宮城郡利府町新中道3丁目1-1イオンモール新利府南館3F",
      "lat": 38.3225944,
      "lon": 140.9722626
    },
    {
      "name": "丸亀製麺秋田",
      "address": "秋田県秋田市将軍野南1-10-62",
      "lat": 39.7469348,
      "lon": 140.0810899
    },
    {
      "name": "丸亀製麺秋田広面",
      "address": "秋田県秋田市広面字堤敷36-1",
      "lat": 39.7277085,
      "lon": 140.1473875
    },
    {
      "name": "丸亀製麺横手",
      "address": "秋田県横手市駅西一丁目3番33号",
      "lat": 39.3101345,
      "lon": 140.5573197
    },
    {
      "name": "丸亀製麺山形",
      "address": "山形県山形市嶋南3-16-10",
      "lat": 38.2824549,
      "lon": 140.316513
    },
    {
      "name": "丸亀製麺イオンモール山形南",
      "address": "山形県山形市若宮3-7-8イオンモール山形南1F",
      "lat": 38.2268914,
      "lon": 140.3050202
    },
    {
      "name": "丸亀製麺米沢",
      "address": "山形県米沢市金池2-5-38",
      "lat": 37.9194938,
      "lon": 140.115089
    },
    {
      "name": "丸亀製麺鶴岡",
      "address": "山形県鶴岡市宝田2-4-45",
      "lat": 38.747207,
      "lon": 139.8428115
    },
    {
      "name": "丸亀製麺酒田",
      "address": "山形県酒田市下安町4-5",
      "lat": 38.9295351,
      "lon": 139.8586079
    },
    {
      "name": "丸亀製麺天童",
      "address": "山形県天童市南町1-6-13",
      "lat": 38.3420999,
      "lon": 140.3735402
    },
    {
      "name": "丸亀製麺東根",
      "address": "山形県東根市大字蟹沢字上縄目1800-5",
      "lat": 38.4272385,
      "lon": 140.3763694
    },
    {
      "name": "丸亀製麺福島西",
      "address": "福島県福島市方木田水口35-2",
      "lat": 37.7399924,
      "lon": 140.4460753
    },
    {
      "name": "丸亀製麺福島",
      "address": "福島県福島市松山町77",
      "lat": 37.7751104,
      "lon": 140.4845711
    },
    {
      "name": "丸亀製麺福島泉",
      "address": "福島県福島市泉大仏15-26",
      "lat": 37.7745852,
      "lon": 140.4482551
    },
    {
      "name": "丸亀製麺会津若松",
      "address": "福島県会津若松市天神町15-7",
      "lat": 37.4845039,
      "lon": 139.9384649
    },
    {
      "name": "丸亀製麺郡山",
      "address": "福島県郡山市並木4-6-2",
      "lat": 37.4116538,
      "lon": 140.3611473
    },
    {
      "name": "丸亀製麺郡山安積",
      "address": "福島県郡山市安積2-102",
      "lat": 37.36011510000001,
      "lon": 140.3669128
    },
    {
      "name": "丸亀製麺イオンタウン郡山",
      "address": "福島県郡山市松木町2-88イオンタウン郡山1F",
      "lat": 37.3885235,
      "lon": 140.3901937
    },
    {
      "name": "丸亀製麺イオンモールいわき小名浜",
      "address": "福島県いわき市小名浜字辰巳町79番地イオンモールいわき小名浜3F",
      "lat": 36.9465422,
      "lon": 140.9043417
    },
    {
      "name": "丸亀製麺いわき鹿島",
      "address": "福島県いわき市鹿島町走熊58-6",
      "lat": 36.9955348,
      "lon": 140.9084448
    },
    {
      "name": "丸亀製麺メガステージ白河",
      "address": "福島県白河市新高山36-1",
      "lat": 37.11837999999999,
      "lon": 140.1951487
    },
    {
      "name": "丸亀製麺須賀川",
      "address": "福島県須賀川市池ノ下町25-4",
      "lat": 37.3042437,
      "lon": 140.3674048
    },
    {
      "name": "丸亀製麺水戸南",
      "address": "茨城県水戸市住吉町6-5",
      "lat": 36.3391616,
      "lon": 140.4797323
    },
    {
      "name": "丸亀製麺イオンモール水戸内原",
      "address": "茨城県水戸市内原2-1イオンモール水戸内原3F",
      "lat": 36.37454,
      "lon": 140.3594193
    },
    {
      "name": "肉のヤマ牛イオンモール水戸内原",
      "address": "茨城県水戸市内原2-1イオンモール水戸内原3F",
      "lat": 36.37457759999999,
      "lon": 140.3589571
    },
    {
      "name": "丸亀製麺水戸",
      "address": "茨城県水戸市姫子2-665-32",
      "lat": 36.3778003,
      "lon": 140.418456
    },
    {
      "name": "コナズ珈琲水戸",
      "address": "茨城県水戸市見川町丹下二ノ牧2138-4",
      "lat": 36.3563732,
      "lon": 140.4208077
    },
    {
      "name": "丸亀製麺日立大沼",
      "address": "茨城県日立市大沼町2-20-6",
      "lat": 36.5348153,
      "lon": 140.6197895
    },
    {
      "name": "丸亀製麺日立",
      "address": "茨城県日立市田尻町4-6-6",
      "lat": 36.6260375,
      "lon": 140.6817464
    },
    {
      "name": "丸亀製麺土浦",
      "address": "茨城県土浦市真鍋新町19-13",
      "lat": 36.0906232,
      "lon": 140.2080794
    },
    {
      "name": "丸亀製麺ベイシア古河総和",
      "address": "茨城県古河市大堤761-1",
      "lat": 36.1811791,
      "lon": 139.7183788
    },
    {
      "name": "丸亀製麺石岡",
      "address": "茨城県石岡市貝地2-2-2",
      "lat": 36.1866043,
      "lon": 140.2814072
    },
    {
      "name": "丸亀製麺龍ヶ崎",
      "address": "茨城県龍ヶ崎市久保台4-1-8",
      "lat": 35.9324828,
      "lon": 140.1807362
    },
    {
      "name": "丸亀製麺笠間",
      "address": "茨城県笠間市寺崎1-1アクロスプラザ笠間",
      "lat": 36.3940315,
      "lon": 140.2543107
    },
    {
      "name": "丸亀製麺牛久",
      "address": "茨城県牛久市ひたち野東2-7-1",
      "lat": 36.0071237,
      "lon": 140.1635052
    },
    {
      "name": "丸亀製麺つくば",
      "address": "茨城県つくば市梅園2-26-14",
      "lat": 36.0524625,
      "lon": 140.1387526
    },
    {
      "name": "丸亀製麺つくば研究学園",
      "address": "茨城県つくば市研究学園3-1-3",
      "lat": 36.0859667,
      "lon": 140.0742426
    },
    {
      "name": "コナズ珈琲つくば",
      "address": "茨城県つくば市研究学園3-1-3",
      "lat": 36.0855276,
      "lon": 140.0741116
    },
    {
      "name": "丸亀製麺イーアスつくば",
      "address": "茨城県つくば市研究学園5-19イーアスつくば3F",
      "lat": 36.0854577,
      "lon": 140.0839199
    },
    {
      "name": "丸亀製麺イオンモールつくば",
      "address": "茨城県つくば市稲岡66-1イオンモールつくば3F",
      "lat": 36.0349817,
      "lon": 140.1329673
    },
    {
      "name": "丸亀製麺ジョイフル本田ニューポートひたちなか",
      "address": "茨城県ひたちなか市新光町34-1",
      "lat": 36.4080459,
      "lon": 140.5862578
    },
    {
      "name": "丸亀製麺ひたちなか",
      "address": "茨城県ひたちなか市東石川3069-7",
      "lat": 36.4148493,
      "lon": 140.5301176
    },
    {
      "name": "丸亀製麺守谷",
      "address": "茨城県守谷市松並2020-4",
      "lat": 35.9603748,
      "lon": 139.9868755
    },
    {
      "name": "丸亀製麺イオンタウン守谷",
      "address": "茨城県守谷市百合ヶ丘3-249-1イオンタウン守谷2F",
      "lat": 35.944869,
      "lon": 139.99039
    },
    {
      "name": "丸亀製麺那珂",
      "address": "茨城県那珂市菅谷5384-4",
      "lat": 36.4557282,
      "lon": 140.5014557
    },
    {
      "name": "丸亀製麺筑西",
      "address": "茨城県筑西市玉戸1018-40",
      "lat": 36.2956524,
      "lon": 139.9415245
    },
    {
      "name": "丸亀製麺神栖",
      "address": "茨城県神栖市神栖1-64-173",
      "lat": 35.89861,
      "lon": 140.642713
    },
    {
      "name": "丸亀製麺宇都宮インターパーク",
      "address": "栃木県宇都宮市インターパーク1-5-1",
      "lat": 36.4982862,
      "lon": 139.9048849
    },
    {
      "name": "丸亀製麺宇都宮上戸祭",
      "address": "栃木県宇都宮市上戸祭町337-13",
      "lat": 36.5894634,
      "lon": 139.8640487
    },
    {
      "name": "丸亀製麺宇都宮元今泉",
      "address": "栃木県宇都宮市元今泉7-5-7",
      "lat": 36.5635223,
      "lon": 139.9155884
    },
    {
      "name": "丸亀製麺宇都宮",
      "address": "栃木県宇都宮市台新田1-1-40",
      "lat": 36.5183079,
      "lon": 139.877887
    },
    {
      "name": "丸亀製麺宇都宮パセオ",
      "address": "栃木県宇都宮市川向町1-23宇都宮パセオ　1F",
      "lat": 36.5597186,
      "lon": 139.8981416
    },
    {
      "name": "丸亀製麺宇都宮鶴田",
      "address": "栃木県宇都宮市鶴田町226-2",
      "lat": 36.5499911,
      "lon": 139.8562544
    },
    {
      "name": "丸亀製麺足利",
      "address": "栃木県足利市田中町38-5",
      "lat": 36.3235948,
      "lon": 139.4497804
    },
    {
      "name": "丸亀製麺栃木",
      "address": "栃木県栃木市平柳町3-10-13",
      "lat": 36.3944079,
      "lon": 139.743984
    },
    {
      "name": "丸亀製麺佐野",
      "address": "栃木県佐野市鐙塚町168-1",
      "lat": 36.3056846,
      "lon": 139.6061277
    },
    {
      "name": "丸亀製麺鹿沼",
      "address": "栃木県鹿沼市緑町1-1-16",
      "lat": 36.5587232,
      "lon": 139.7662596
    },
    {
      "name": "丸亀製麺小山",
      "address": "栃木県小山市駅南町6-28-12",
      "lat": 36.2985088,
      "lon": 139.8182785
    },
    {
      "name": "丸亀製麺真岡",
      "address": "栃木県真岡市上高間木3-10-6",
      "lat": 36.4400686,
      "lon": 139.9859286
    },
    {
      "name": "丸亀製麺大田原",
      "address": "栃木県大田原市住吉町2-14-3",
      "lat": 36.8718336,
      "lon": 140.0229901
    },
    {
      "name": "丸亀製麺黒磯",
      "address": "栃木県那須塩原市共墾社79-2",
      "lat": 36.9638431,
      "lon": 140.0507011
    },
    {
      "name": "丸亀製麺けやきウォーク前橋",
      "address": "群馬県前橋市文京町2-1-1けやきウォーク前橋2F",
      "lat": 36.3791391,
      "lon": 139.0780839
    },
    {
      "name": "肉のヤマ牛けやきウォーク前橋",
      "address": "群馬県前橋市文京町2-1-1けやきウォーク前橋2F",
      "lat": 36.3785515,
      "lon": 139.0782393
    },
    {
      "name": "丸亀製麺パワーモール前橋みなみ",
      "address": "群馬県前橋市新堀町920パワーモール前橋みなみ",
      "lat": 36.3298793,
      "lon": 139.0980135
    },
    {
      "name": "丸亀製麺前橋北",
      "address": "群馬県前橋市荒牧町1-10-5",
      "lat": 36.4253655,
      "lon": 139.0572327
    },
    {
      "name": "丸亀製麺前橋西片貝",
      "address": "群馬県前橋市西片貝町4-13-23",
      "lat": 36.3863772,
      "lon": 139.0933875
    },
    {
      "name": "コナズ珈琲高崎",
      "address": "群馬県高崎市上大類町914-1",
      "lat": 36.3345225,
      "lon": 139.0281644
    },
    {
      "name": "丸亀製麺イーサイト高崎",
      "address": "群馬県高崎市八島町222イーサイト高崎1F",
      "lat": 36.3222491,
      "lon": 139.0133397
    },
    {
      "name": "丸亀製麺高崎大八木",
      "address": "群馬県高崎市大八木町653-1",
      "lat": 36.362777,
      "lon": 139.0012336
    },
    {
      "name": "丸亀製麺高崎",
      "address": "群馬県高崎市高関町365-1",
      "lat": 36.3287285,
      "lon": 139.0276554
    },
    {
      "name": "丸亀製麺桐生",
      "address": "群馬県桐生市広沢町5-1519-8",
      "lat": 36.3795372,
      "lon": 139.3427147
    },
    {
      "name": "丸亀製麺SMARK ISESAKI",
      "address": "群馬県伊勢崎市西小保方町368SMARK ISESAKI3F",
      "lat": 36.3397573,
      "lon": 139.2332983
    },
    {
      "name": "豚屋とん一SMARK ISESAKI",
      "address": "群馬県伊勢崎市西小保方町368SMARK ISESAKI3F",
      "lat": 36.3399602,
      "lon": 139.2331773
    },
    {
      "name": "丸亀製麺伊勢崎",
      "address": "群馬県伊勢崎市連取町2354-6",
      "lat": 36.3076584,
      "lon": 139.1841667
    },
    {
      "name": "コナズ珈琲太田",
      "address": "群馬県太田市内ケ島町834-1",
      "lat": 36.2840408,
      "lon": 139.3936889
    },
    {
      "name": "丸亀製麺太田",
      "address": "群馬県太田市西矢島町581-5",
      "lat": 36.274574,
      "lon": 139.3768601
    },
    {
      "name": "丸亀製麺渋川",
      "address": "群馬県渋川市渋川下郷1197",
      "lat": 36.4960193,
      "lon": 139.013377
    },
    {
      "name": "丸亀製麺レイクタウンmori",
      "address": "埼玉県越谷市レイクタウン3-1-1イオンレイクタウンmori3F",
      "lat": 35.8817762,
      "lon": 139.8281288
    },
    {
      "name": "丸亀製麺イオンモール浦和美園",
      "address": "埼玉県さいたま市緑区美園5-50-1イオンモール浦和美園3F",
      "lat": 35.890915,
      "lon": 139.731359
    },
    {
      "name": "丸亀製麺大宮西",
      "address": "埼玉県さいたま市西区宮前町718",
      "lat": 35.9243301,
      "lon": 139.5824466
    },
    {
      "name": "丸亀製麺大宮すずらん通り",
      "address": "埼玉県さいたま市大宮区大門町1-19-1ARCHECube1-1F",
      "lat": 35.9070711,
      "lon": 139.6264245
    },
    {
      "name": "丸亀製麺大宮大和田",
      "address": "埼玉県さいたま市見沼区大和田町1-754-2",
      "lat": 35.9195438,
      "lon": 139.6480662
    },
    {
      "name": "丸亀製麺さいたま中央",
      "address": "埼玉県さいたま市中央区大戸6-15-4",
      "lat": 35.8696717,
      "lon": 139.6327999
    },
    {
      "name": "丸亀製麺イオンモール与野",
      "address": "埼玉県さいたま市中央区本町西5-2-9イオンモール与野1F",
      "lat": 35.8908236,
      "lon": 139.6154678
    },
    {
      "name": "丸亀製麺さいたま桜",
      "address": "埼玉県さいたま市桜区下大久保824-1",
      "lat": 35.8650638,
      "lon": 139.6051996
    },
    {
      "name": "丸亀製麺浦和コルソ",
      "address": "埼玉県さいたま市浦和区高砂1-12-1浦和コルソB1F",
      "lat": 35.8584771,
      "lon": 139.6559286
    },
    {
      "name": "丸亀製麺ビーンズキッチン武蔵浦和",
      "address": "埼玉県さいたま市南区別所7-12-1武蔵浦和駅改札内ビーンズ浦和2Ｆ",
      "lat": 35.84567639999999,
      "lon": 139.6465912
    },
    {
      "name": "丸亀製麺さいたま太田窪",
      "address": "埼玉県さいたま市南区大字太田窪1742-1",
      "lat": 35.8558136,
      "lon": 139.6794654
    },
    {
      "name": "コナズ珈琲東浦和",
      "address": "埼玉県さいたま市緑区大間木185-1",
      "lat": 35.8784542,
      "lon": 139.6928781
    },
    {
      "name": "とんかつとん一イオンモール浦和美園",
      "address": "埼玉県さいたま市緑区美園5-50-1イオンモール浦和美園3F",
      "lat": 35.8911262,
      "lon": 139.7311906
    },
    {
      "name": "丸亀製麺さいたま道祖土",
      "address": "埼玉県さいたま市緑区道祖土2-18-16",
      "lat": 35.882027,
      "lon": 139.6695544
    },
    {
      "name": "丸亀製麺岩槻",
      "address": "埼玉県さいたま市岩槻区加倉5-1241-1",
      "lat": 35.9408912,
      "lon": 139.6911337
    },
    {
      "name": "丸亀製麺川越",
      "address": "埼玉県川越市南台2-8-3",
      "lat": 35.89286,
      "lon": 139.45377
    },
    {
      "name": "丸亀製麺熊谷",
      "address": "埼玉県熊谷市銀座4-11-21",
      "lat": 36.1385651,
      "lon": 139.3983154
    },
    {
      "name": "丸亀製麺川口上青木",
      "address": "埼玉県川口市上青木2-4-17",
      "lat": 35.824957,
      "lon": 139.7241179
    },
    {
      "name": "丸亀製麺アリオ川口",
      "address": "埼玉県川口市並木元町1-79アリオ川口1F",
      "lat": 35.8075439,
      "lon": 139.7139197
    },
    {
      "name": "丸亀製麺川口",
      "address": "埼玉県川口市中青木2-20-3",
      "lat": 35.8097541,
      "lon": 139.7212075
    },
    {
      "name": "丸亀製麺ララガーデン川口",
      "address": "埼玉県川口市宮町18-9ララガーデン川口2F",
      "lat": 35.8048684,
      "lon": 139.6982172
    },
    {
      "name": "丸亀製麺川口新井宿",
      "address": "埼玉県川口市西新井宿396-5",
      "lat": 35.8457532,
      "lon": 139.734436
    },
    {
      "name": "丸亀製麺秩父",
      "address": "埼玉県秩父市上宮地町27-8",
      "lat": 36.0031542,
      "lon": 139.0907548
    },
    {
      "name": "丸亀製麺所沢東",
      "address": "埼玉県所沢市上安松822-46",
      "lat": 35.7906803,
      "lon": 139.4933428
    },
    {
      "name": "丸亀製麺所沢北",
      "address": "埼玉県所沢市北所沢町2222-1",
      "lat": 35.81026689999999,
      "lon": 139.4557165
    },
    {
      "name": "コナズ珈琲所沢",
      "address": "埼玉県所沢市北野1-2-61",
      "lat": 35.7970066,
      "lon": 139.4272463
    },
    {
      "name": "丸亀製麺エミテラス所沢",
      "address": "埼玉県所沢市東住吉10エミテラス所沢1F",
      "lat": 35.7852227,
      "lon": 139.4708506
    },
    {
      "name": "ラー麺ずんどう屋 所沢店",
      "address": "埼玉県所沢市榎町7－11",
      "lat": 35.8034422,
      "lon": 139.4439986
    },
    {
      "name": "コナズ珈琲ビバモール加須",
      "address": "埼玉県加須市下高柳1-17",
      "lat": 36.1107438,
      "lon": 139.6097433
    },
    {
      "name": "丸亀製麺ビバモール加須",
      "address": "埼玉県加須市下高柳1-28",
      "lat": 36.1112186,
      "lon": 139.6074017
    },
    {
      "name": "丸亀製麺本庄",
      "address": "埼玉県本庄市若泉3-294-1",
      "lat": 36.2479449,
      "lon": 139.1874154
    },
    {
      "name": "丸亀製麺東松山",
      "address": "埼玉県東松山市新宿町5-3",
      "lat": 36.0358487,
      "lon": 139.4172666
    },
    {
      "name": "丸亀製麺イオンモール春日部",
      "address": "埼玉県春日部市下柳420-1イオンモール春日部2F",
      "lat": 35.9880125,
      "lon": 139.7888476
    },
    {
      "name": "肉のヤマ牛イオンモール春日部",
      "address": "埼玉県春日部市下柳420-1イオンモール春日部2F",
      "lat": 35.9878979,
      "lon": 139.7888689
    },
    {
      "name": "丸亀製麺春日部緑町",
      "address": "埼玉県春日部市緑町6-14-1",
      "lat": 35.9669025,
      "lon": 139.7695202
    },
    {
      "name": "丸亀製麺狭山",
      "address": "埼玉県狭山市中央2-50-1",
      "lat": 35.85884430000001,
      "lon": 139.4307031
    },
    {
      "name": "丸亀製麺狭山笹井",
      "address": "埼玉県狭山市大字笹井字八木2677-8",
      "lat": 35.84607099999999,
      "lon": 139.3650025
    },
    {
      "name": "丸亀製麺羽生",
      "address": "埼玉県羽生市大字下岩瀬字下岩瀬596-2",
      "lat": 36.1581477,
      "lon": 139.5317296
    },
    {
      "name": "丸亀製麺深谷",
      "address": "埼玉県深谷市常盤町19",
      "lat": 36.194511,
      "lon": 139.2961128
    },
    {
      "name": "丸亀製麺上尾",
      "address": "埼玉県上尾市愛宕2-20-15",
      "lat": 35.9709758,
      "lon": 139.6008635
    },
    {
      "name": "丸亀製麺イオンモール上尾",
      "address": "埼玉県上尾市愛宕3-8-1イオンモール上尾 2F",
      "lat": 35.9646357,
      "lon": 139.6009991
    },
    {
      "name": "丸亀製麺草加",
      "address": "埼玉県草加市新善町454-11",
      "lat": 35.8495506,
      "lon": 139.7849367
    },
    {
      "name": "丸亀製麺島忠ホームズ草加舎人",
      "address": "埼玉県草加市遊馬町2-1島忠ホームズ草加舎人1F",
      "lat": 35.81808,
      "lon": 139.768827
    },
    {
      "name": "丸亀製麺草加VARIE",
      "address": "埼玉県草加市高砂2-5-25草加ｳﾞｧﾘｴVARIE-1",
      "lat": 35.8282382,
      "lon": 139.8033707
    },
    {
      "name": "丸亀製麺新越谷VARIE",
      "address": "埼玉県越谷市南越谷1-11-4新越谷VARIEプラザ館1F",
      "lat": 35.876348,
      "lon": 139.789807
    },
    {
      "name": "丸亀製麺東越谷",
      "address": "埼玉県越谷市東越谷8-102-2",
      "lat": 35.8961229,
      "lon": 139.803989
    },
    {
      "name": "丸亀製麺越谷赤山",
      "address": "埼玉県越谷市赤山町2-28-1",
      "lat": 35.8847811,
      "lon": 139.7834144
    },
    {
      "name": "丸亀製麺蕨東口",
      "address": "埼玉県蕨市塚越1-2-16三井ビル1Ｆ",
      "lat": 35.828477,
      "lon": 139.691078
    },
    {
      "name": "丸亀製麺戸田",
      "address": "埼玉県戸田市新曽2101",
      "lat": 35.8169958,
      "lon": 139.6600572
    },
    {
      "name": "丸亀製麺ビーンズ戸田公園",
      "address": "埼玉県戸田市本町4-15-1ビーンズ戸田公園2F",
      "lat": 35.807887,
      "lon": 139.678006
    },
    {
      "name": "丸亀製麺朝霞",
      "address": "埼玉県朝霞市三原5-2-4",
      "lat": 35.8080648,
      "lon": 139.5761245
    },
    {
      "name": "丸亀製麺朝霞青葉台",
      "address": "埼玉県朝霞市青葉台1-2-7",
      "lat": 35.79539159999999,
      "lon": 139.596483
    },
    {
      "name": "丸亀製麺新座",
      "address": "埼玉県新座市菅沢1-6-5",
      "lat": 35.7911776,
      "lon": 139.5495758
    },
    {
      "name": "丸亀製麺桶川",
      "address": "埼玉県桶川市坂田1652-1",
      "lat": 36.0128931,
      "lon": 139.561332
    },
    {
      "name": "丸亀製麺モラージュ菖蒲",
      "address": "埼玉県久喜市菖蒲町菖蒲6005-1モラージュ菖蒲3F",
      "lat": 36.075265,
      "lon": 139.6116012
    },
    {
      "name": "丸亀製麺鷲宮",
      "address": "埼玉県久喜市西大輪2丁目11-1",
      "lat": 36.0923794,
      "lon": 139.6760288
    },
    {
      "name": "丸亀製麺八潮",
      "address": "埼玉県八潮市大瀬1-10-11",
      "lat": 35.8101609,
      "lon": 139.8446265
    },
    {
      "name": "丸亀製麺富士見",
      "address": "埼玉県富士見市鶴馬1-20-20",
      "lat": 35.8511313,
      "lon": 139.5411662
    },
    {
      "name": "丸亀製麺三郷",
      "address": "埼玉県三郷市大広戸907-1",
      "lat": 35.8468136,
      "lon": 139.8758101
    },
    {
      "name": "丸亀製麺ららぽーと新三郷",
      "address": "埼玉県三郷市新三郷ららシティ3-1-1ららぽーと新三郷2F",
      "lat": 35.8595527,
      "lon": 139.8662719
    },
    {
      "name": "丸亀製麺鶴ヶ島",
      "address": "埼玉県鶴ヶ島市大字脚折1623-1",
      "lat": 35.9390347,
      "lon": 139.3929347
    },
    {
      "name": "丸亀製麺ワカバウォーク",
      "address": "埼玉県鶴ヶ島市富士見1-2-1ワカバウォーク2F",
      "lat": 35.949191,
      "lon": 139.410943
    },
    {
      "name": "丸亀製麺ベイシアひだかモール",
      "address": "埼玉県日高市大字森戸新田字藤久保88-5",
      "lat": 35.9150171,
      "lon": 139.3731407
    },
    {
      "name": "丸亀製麺イオン大井",
      "address": "埼玉県ふじみ野市ふじみ野1-2-1イオン大井1F",
      "lat": 35.8595144,
      "lon": 139.5148459
    },
    {
      "name": "コナズ珈琲ふじみ野",
      "address": "埼玉県ふじみ野市鶴ヶ舞3-9-1",
      "lat": 35.8707298,
      "lon": 139.5046558
    },
    {
      "name": "丸亀製麺白岡",
      "address": "埼玉県白岡市西6-4-4",
      "lat": 36.0219042,
      "lon": 139.6529212
    },
    {
      "name": "丸亀製麺杉戸",
      "address": "埼玉県北葛飾郡杉戸町清地3-4-18",
      "lat": 36.0250122,
      "lon": 139.7401312
    },
    {
      "name": "丸亀製麺ペリエ稲毛",
      "address": "千葉県千葉市稲毛区稲毛東3-19",
      "lat": 35.6371877,
      "lon": 140.0923259
    },
    {
      "name": "丸亀製麺千葉C-ONE",
      "address": "千葉県千葉市中央区富士見2-24-1Cブロック",
      "lat": 35.6093298,
      "lon": 140.117069
    },
    {
      "name": "丸亀製麺アリオ蘇我",
      "address": "千葉県千葉市中央区川崎町52-7アリオ蘇我1F",
      "lat": 35.5882283,
      "lon": 140.1224557
    },
    {
      "name": "豚屋とん一アリオ蘇我",
      "address": "千葉県千葉市中央区川崎町52-7アリオ蘇我1F",
      "lat": 35.58812169999999,
      "lon": 140.1220993
    },
    {
      "name": "丸亀製麺ペリエ千葉",
      "address": "千葉県千葉市中央区新千葉1-1-1ペリエ千葉1F",
      "lat": 35.6127769,
      "lon": 140.1138688
    },
    {
      "name": "丸亀製麺武石インター",
      "address": "千葉県千葉市花見川区武石町1-154-1",
      "lat": 35.6688499,
      "lon": 140.0632172
    },
    {
      "name": "丸亀製麺千葉園生町",
      "address": "千葉県千葉市稲毛区園生町956-10",
      "lat": 35.6415723,
      "lon": 140.1040835
    },
    {
      "name": "丸亀製麺千葉みつわ台",
      "address": "千葉県千葉市若葉区みつわ台2-14-7",
      "lat": 35.638455,
      "lon": 140.131031
    },
    {
      "name": "丸亀製麺千葉加曽利",
      "address": "千葉県千葉市若葉区加曽利町27-4",
      "lat": 35.6089655,
      "lon": 140.1489512
    },
    {
      "name": "丸亀製麺マリンピア",
      "address": "千葉県千葉市美浜区高洲3-13-1マリンピア4F",
      "lat": 35.6284301,
      "lon": 140.0736173
    },
    {
      "name": "丸亀製麺シャポー本八幡",
      "address": "千葉県市川市八幡2-17-1シャポー本八幡1F",
      "lat": 35.7210653,
      "lon": 139.926857
    },
    {
      "name": "丸亀製麺行徳",
      "address": "千葉県市川市新浜1-10-4",
      "lat": 35.6777765,
      "lon": 139.9197501
    },
    {
      "name": "肉のヤマ牛南行徳",
      "address": "千葉県市川市相之川4-17-2メトロセンター南行徳B棟",
      "lat": 35.6729522,
      "lon": 139.9024565
    },
    {
      "name": "丸亀製麺ニッケコルトンプラザ",
      "address": "千葉県市川市鬼高1-1-1ニッケコルトンプラザイーストモール3F",
      "lat": 35.7158734,
      "lon": 139.9346837
    },
    {
      "name": "コナズ珈琲新船橋",
      "address": "千葉県船橋市山手1-2-11",
      "lat": 35.7156916,
      "lon": 139.9777991
    },
    {
      "name": "肉のヤマ牛 原木中山",
      "address": "千葉県船橋市本中山7-7-1 ​",
      "lat": 35.7027028,
      "lon": 139.9412932
    },
    {
      "name": "丸亀製麺イトーヨーカドー船橋",
      "address": "千葉県船橋市本町7-6-1船橋ツインビル西館　イトーヨーカドー船橋1F",
      "lat": 35.7032972,
      "lon": 139.9843666
    },
    {
      "name": "丸亀製麺習志野台",
      "address": "千葉県船橋市習志野台4-81-17",
      "lat": 35.7126156,
      "lon": 140.053061
    },
    {
      "name": "丸亀製麺船橋西船",
      "address": "千葉県船橋市西船7-7-37",
      "lat": 35.718503,
      "lon": 139.95802
    },
    {
      "name": "丸亀製麺船橋芝山",
      "address": "千葉県船橋市飯山満町1-1402-1",
      "lat": 35.7169454,
      "lon": 140.0156746
    },
    {
      "name": "丸亀製麺館山",
      "address": "千葉県館山市八幡629-4",
      "lat": 35.0049209,
      "lon": 139.8628659
    },
    {
      "name": "丸亀製麺木更津",
      "address": "千葉県木更津市請西1-15-24",
      "lat": 35.3746323,
      "lon": 139.9346492
    },
    {
      "name": "丸亀製麺松戸二十世紀が丘",
      "address": "千葉県松戸市二十世紀が丘丸山町83",
      "lat": 35.7678015,
      "lon": 139.9109045
    },
    {
      "name": "丸亀製麺イオンフードスタイル新松戸",
      "address": "千葉県松戸市新松戸3-2-2イオンフードスタイル新松戸2F",
      "lat": 35.8259306,
      "lon": 139.9154461
    },
    {
      "name": "とんかつとん一松戸駅前",
      "address": "千葉県松戸市本町2-3平野第一ビル",
      "lat": 35.7840991,
      "lon": 139.8993927
    },
    {
      "name": "丸亀製麺松戸栗ヶ沢",
      "address": "千葉県松戸市栗ヶ沢825-1",
      "lat": 35.8103983,
      "lon": 139.9535772
    },
    {
      "name": "丸亀製麺野田",
      "address": "千葉県野田市横内字下香取前68-3",
      "lat": 35.9480324,
      "lon": 139.8822479
    },
    {
      "name": "丸亀製麺茂原",
      "address": "千葉県茂原市小林1619-2",
      "lat": 35.4384166,
      "lon": 140.288765
    },
    {
      "name": "丸亀製麺イオンモール成田",
      "address": "千葉県成田市ウイング土屋24イオンモール成田2F",
      "lat": 35.7955745,
      "lon": 140.3187065
    },
    {
      "name": "丸亀製麺成田",
      "address": "千葉県成田市美郷台3-17-5",
      "lat": 35.7954135,
      "lon": 140.3123474
    },
    {
      "name": "丸亀製麺佐倉",
      "address": "千葉県佐倉市上志津1799-1",
      "lat": 35.7205171,
      "lon": 140.1498892
    },
    {
      "name": "丸亀製麺東金",
      "address": "千葉県東金市東上宿2-27-5",
      "lat": 35.5542365,
      "lon": 140.3653291
    },
    {
      "name": "丸亀製麺旭",
      "address": "千葉県旭市ニ1662",
      "lat": 35.724861,
      "lon": 140.6466188
    },
    {
      "name": "コナズ珈琲幕張",
      "address": "千葉県習志野市芝園1-2-2",
      "lat": 35.6632216,
      "lon": 140.016147
    },
    {
      "name": "丸亀製麺柏名戸ケ谷",
      "address": "千葉県柏市名戸ケ谷975-1",
      "lat": 35.8444099,
      "lon": 139.9792183
    },
    {
      "name": "丸亀製麺柏駅南口",
      "address": "千葉県柏市柏1-2-8システムランドビル2F",
      "lat": 35.8608245,
      "lon": 139.9707566
    },
    {
      "name": "丸亀製麺ららぽーと柏の葉",
      "address": "千葉県柏市若柴175ららぽーと柏の葉3F",
      "lat": 35.8934086,
      "lon": 139.9519304
    },
    {
      "name": "丸亀製麺ｕｎｉｍｏちはら台",
      "address": "千葉県市原市ちはら台西3-4unimoちはら台2F",
      "lat": 35.52732990000001,
      "lon": 140.1719337
    },
    {
      "name": "肉のヤマ牛ｕｎｉｍｏちはら台",
      "address": "千葉県市原市ちはら台西3-4unimoちはら台2F",
      "lat": 35.5278617,
      "lon": 140.1712021
    },
    {
      "name": "丸亀製麺カインズ市原",
      "address": "千葉県市原市更級3-1-51",
      "lat": 35.5073307,
      "lon": 140.1032742
    },
    {
      "name": "丸亀製麺市原青柳",
      "address": "千葉県市原市青柳北3-1-10",
      "lat": 35.507121,
      "lon": 140.061549
    },
    {
      "name": "丸亀製麺流山",
      "address": "千葉県流山市市野谷117-1",
      "lat": 35.8620864,
      "lon": 139.9122971
    },
    {
      "name": "コナズ珈琲八千代緑が丘",
      "address": "千葉県八千代市大和田新田1043-1",
      "lat": 35.7233552,
      "lon": 140.0715685
    },
    {
      "name": "丸亀製麺我孫子",
      "address": "千葉県我孫子市つくし野4-5-1",
      "lat": 35.8780477,
      "lon": 140.0054387
    },
    {
      "name": "丸亀製麺君津",
      "address": "千葉県君津市常代2-17-15",
      "lat": 35.3098978,
      "lon": 139.9225019
    },
    {
      "name": "丸亀製麺アトレ新浦安",
      "address": "千葉県浦安市入船1丁目1-1アトレ新浦安2F",
      "lat": 35.6497483,
      "lon": 139.9126663
    },
    {
      "name": "丸亀製麺袖ヶ浦",
      "address": "千葉県袖ヶ浦市福王台4-1-18",
      "lat": 35.4324265,
      "lon": 139.9672241
    },
    {
      "name": "丸亀製麺千葉ニュータウン中央",
      "address": "千葉県印西市中央北1-3-1-1",
      "lat": 35.8043137,
      "lon": 140.1155396
    },
    {
      "name": "丸亀製麺千葉ニュータウン白井",
      "address": "千葉県白井市根447-1",
      "lat": 35.7839551,
      "lon": 140.0461279
    },
    {
      "name": "丸亀製麺富里",
      "address": "千葉県富里市七栄525-91",
      "lat": 35.7446416,
      "lon": 140.3153394
    },
    {
      "name": "丸亀製麺上本佐倉",
      "address": "千葉県印旛郡酒々井町上本佐倉190-1",
      "lat": 35.7206904,
      "lon": 140.2600418
    },
    {
      "name": "立呑み晩杯屋西葛西店",
      "address": "東京都江戸川区西葛西6丁目14　西葛西メトロセンター一番街",
      "lat": 35.6645054,
      "lon": 139.8606782
    },
    {
      "name": "丸亀製麺日比谷帝劇ビル",
      "address": "東京都千代田区丸の内3-1-1帝劇ビルB1F",
      "lat": 35.6767203,
      "lon": 139.7608193
    },
    {
      "name": "丸亀製麺JR有楽町駅",
      "address": "東京都千代田区丸の内3-6-14",
      "lat": 35.675833,
      "lon": 139.7640599
    },
    {
      "name": "丸亀製麺アトレ秋葉原1",
      "address": "東京都千代田区外神田1-17-6アトレ秋葉原1-1F",
      "lat": 35.6984426,
      "lon": 139.7724317
    },
    {
      "name": "丸亀製麺飯田橋サクラテラス",
      "address": "東京都千代田区富士見2-10-2飯田橋グラン・ブルーム3F",
      "lat": 35.6989404,
      "lon": 139.7438649
    },
    {
      "name": "丸亀製麺神田小川町",
      "address": "東京都千代田区神田小川町3-3　HF神田小川町ビルディング 1F",
      "lat": 35.6950014,
      "lon": 139.7616553
    },
    {
      "name": "丸亀製麺御茶ノ水",
      "address": "東京都千代田区神田駿河台4-3新お茶の水ビルディングB1F",
      "lat": 35.698814,
      "lon": 139.765067
    },
    {
      "name": "丸亀製麺霞が関ビルディング",
      "address": "東京都千代田区霞が関3-2-5霞が関ビルディング1Fカスミダイニング",
      "lat": 35.6711859,
      "lon": 139.7471945
    },
    {
      "name": "立呑み晩杯屋　飯田橋東口",
      "address": "東京都千代田区飯田橋4-9-8",
      "lat": 35.70152059999999,
      "lon": 139.7452569
    },
    {
      "name": "ふたば製麺コレド室町テラス",
      "address": "東京都中央区日本橋室町3-2-1日本橋室町三井タワー コレド室町テラス1F",
      "lat": 35.6879479,
      "lon": 139.7723052
    },
    {
      "name": "丸亀製麺晴海トリトン",
      "address": "東京都中央区晴海1-8-16晴海トリトン1F",
      "lat": 35.6574706,
      "lon": 139.7823685
    },
    {
      "name": "丸亀製麺六本木ティーキューブ",
      "address": "東京都港区六本木3-1-1六本木ティーキューブ1F",
      "lat": 35.6657485,
      "lon": 139.7382005
    },
    {
      "name": "立呑み晩杯屋 新橋SL広場",
      "address": "東京都港区新橋2-17",
      "lat": 35.66737440000001,
      "lon": 139.7579377
    },
    {
      "name": "丸亀製麺カレッタ汐留",
      "address": "東京都港区東新橋1-8-2カレッタ汐留B2F",
      "lat": 35.6645782,
      "lon": 139.7622336
    },
    {
      "name": "丸亀製麺ハマサイト",
      "address": "東京都港区海岸1-2-20汐留ビルディング1F",
      "lat": 35.6565159,
      "lon": 139.7593575
    },
    {
      "name": "立呑み晩杯屋 田町",
      "address": "東京都港区芝5-26-4",
      "lat": 35.6477965,
      "lon": 139.7456268
    },
    {
      "name": "丸亀製麺芝浦シーバンス",
      "address": "東京都港区芝浦1-2-2シーバンス　ア・モール2F",
      "lat": 35.6498174,
      "lon": 139.7565694
    },
    {
      "name": "伊吹うどん東京ミッドタウン六本木",
      "address": "東京都港区赤坂9-7-1東京ミッドタウンガレリアB1F",
      "lat": 35.6657289,
      "lon": 139.7307737
    },
    {
      "name": "丸亀製麺新宿御苑前",
      "address": "東京都新宿区新宿1-4-13溝呂木第2ﾋﾞﾙ1F",
      "lat": 35.6882412,
      "lon": 139.7117017
    },
    {
      "name": "立呑み晩杯屋 新宿東口",
      "address": "東京都新宿区新宿3-21-4",
      "lat": 35.6930381,
      "lon": 139.7021713
    },
    {
      "name": "譚仔三哥米線新宿中央通り",
      "address": "東京都新宿区新宿3-28-16コルネビル 1、2F",
      "lat": 35.6908431,
      "lon": 139.7032658
    },
    {
      "name": "ラー麺ずんどう屋 新宿歌舞伎町",
      "address": "東京都新宿区歌舞伎町2-39-3",
      "lat": 35.6967769,
      "lon": 139.701975
    },
    {
      "name": "立呑み晩杯屋 新宿思い出横丁",
      "address": "東京都新宿区西新宿1-2-8",
      "lat": 35.6927569,
      "lon": 139.6997166
    },
    {
      "name": "丸亀製麺新宿三井ビル",
      "address": "東京都新宿区西新宿2-1-1新宿三井ﾋﾞﾙB1F",
      "lat": 35.6919064,
      "lon": 139.6938992
    },
    {
      "name": "丸亀製麺東京オペラシティ",
      "address": "東京都新宿区西新宿3-20-2東京オペラシティビル2F",
      "lat": 35.6829523,
      "lon": 139.6867262
    },
    {
      "name": "丸亀製麺早稲田",
      "address": "東京都新宿区馬場下町14清渓ビル1F",
      "lat": 35.7064202,
      "lon": 139.7188412
    },
    {
      "name": "丸亀製麺東京ドームシティ",
      "address": "東京都文京区後楽1-3-61パラシュートランドビル1F",
      "lat": 35.7045716,
      "lon": 139.7543861
    },
    {
      "name": "丸亀製麺東洋大学",
      "address": "東京都文京区白山5-28",
      "lat": 35.7230774,
      "lon": 139.7498418
    },
    {
      "name": "丸亀製麺上野中央通り",
      "address": "東京都台東区上野4-9-6ナガフジビル1F",
      "lat": 35.7101747,
      "lon": 139.7739917
    },
    {
      "name": "大衆酒場晩杯屋 北関東ふるさと編　ファンデス上野",
      "address": "東京都台東区上野7-2-4FUNDES上野5階",
      "lat": 35.7127023,
      "lon": 139.7774675
    },
    {
      "name": "立呑み晩杯屋 鶯谷",
      "address": "東京都台東区根岸3-5-7",
      "lat": 35.7218239,
      "lon": 139.7804033
    },
    {
      "name": "丸亀製麺浅草ROX",
      "address": "東京都台東区浅草1-26-5ROX-3G　 1階",
      "lat": 35.7126869,
      "lon": 139.7934733
    },
    {
      "name": "丸亀製麺オリナスモール",
      "address": "東京都墨田区太平4-1-2オリナスモール3F",
      "lat": 35.70072,
      "lon": 139.81581
    },
    {
      "name": "丸亀製麺両国",
      "address": "東京都墨田区横網1-3-13",
      "lat": 35.6957949,
      "lon": 139.7926656
    },
    {
      "name": "肉のヤマ牛両国",
      "address": "東京都墨田区横網1-3-9",
      "lat": 35.6957809,
      "lon": 139.7934182
    },
    {
      "name": "丸亀製麺アトレ亀戸",
      "address": "東京都江東区亀戸5丁目1-1アトレ亀戸1F",
      "lat": 35.6979431,
      "lon": 139.8270017
    },
    {
      "name": "立呑み晩杯屋 亀戸東口",
      "address": "東京都江東区亀戸6-62-8",
      "lat": 35.697171,
      "lon": 139.828892
    },
    {
      "name": "晩杯屋門前仲町",
      "address": "東京都江東区富岡1-10-3セブンスターマンション1階",
      "lat": 35.6711126,
      "lon": 139.7982322
    },
    {
      "name": "丸亀製麺SUNAMO",
      "address": "東京都江東区新砂3-4-31南砂町ショッピングセンターSUNAMO4F",
      "lat": 35.665144,
      "lon": 139.8352129
    },
    {
      "name": "丸亀製麺東陽町",
      "address": "東京都江東区東陽4-10-8杉船ビル東陽町1F",
      "lat": 35.671988,
      "lon": 139.8164374
    },
    {
      "name": "丸亀製麺スーパービバホーム豊洲",
      "address": "東京都江東区豊洲3-4-8スーパービバホーム豊洲2F",
      "lat": 35.6568952,
      "lon": 139.7981071
    },
    {
      "name": "肉のヤマ牛パトリア品川",
      "address": "東京都品川区八潮5-5-3パトリア品川1F",
      "lat": 35.599607,
      "lon": 139.7502522
    },
    {
      "name": "丸亀製麺ThinkPark",
      "address": "東京都品川区大崎2-1-1ThinkParkTower1F",
      "lat": 35.6183779,
      "lon": 139.7275248
    },
    {
      "name": "立呑み晩杯屋 武蔵小山駅前",
      "address": "東京都品川区小山3-15-1パークシティ武蔵小山ザモール1F",
      "lat": 35.6198322,
      "lon": 139.7047576
    },
    {
      "name": "立呑み晩杯屋　武蔵小山本店",
      "address": "東京都品川区小山3-24-10",
      "lat": 35.6188173,
      "lon": 139.7044866
    },
    {
      "name": "立ち呑み晩杯屋 中延",
      "address": "東京都品川区東中延2-10-14ヴィラキクチ1階",
      "lat": 35.6062929,
      "lon": 139.7123787
    },
    {
      "name": "立呑み晩杯屋　五反田東口",
      "address": "東京都品川区東五反田1-15-7",
      "lat": 35.6261659,
      "lon": 139.7253303
    },
    {
      "name": "立呑み晩杯屋　大井町",
      "address": "東京都品川区東大井5-3-5",
      "lat": 35.6075,
      "lon": 139.7359
    },
    {
      "name": "立呑み晩杯屋　ゼームス坂上",
      "address": "東京都品川区東大井5-5-8",
      "lat": 35.6073,
      "lon": 139.7367
    },
    {
      "name": "丸亀製麺品川",
      "address": "東京都港区港南2-17-1京王品川ビル2F",
      "lat": 35.6248774,
      "lon": 139.7393912
    },
    {
      "name": "まきの武蔵小山",
      "address": "東京都品川区荏原3-8-5トーシン第3ビル1F",
      "lat": 35.6178089,
      "lon": 139.7063251
    },
    {
      "name": "立呑み晩杯屋　中目黒目黒川RS",
      "address": "東京都目黒区上目黒1-26-1",
      "lat": 35.6439,
      "lon": 139.7003
    },
    {
      "name": "座れる晩杯屋　大森東口本店",
      "address": "東京都大田区大森北1-3-2",
      "lat": 35.5875869,
      "lon": 139.7288311
    },
    {
      "name": "肉のヤマ牛梅屋敷",
      "address": "東京都大田区大森西6-15-21コンビビアリテ スィス1F",
      "lat": 35.5675272,
      "lon": 139.7272775
    },
    {
      "name": "丸亀製麺羽田空港第2ビル",
      "address": "東京都大田区羽田空港3-4-2第2旅客ターミナルB1F",
      "lat": 35.5501765,
      "lon": 139.7887479
    },
    {
      "name": "大衆酒場晩杯屋　蒲田西口",
      "address": "東京都大田区西蒲田7-29-5ニューカマタビル2階",
      "lat": 35.5632,
      "lon": 139.715
    },
    {
      "name": "立呑み晩杯屋 蒲田くいだおれ横丁",
      "address": "東京都大田区西蒲田7-69-1",
      "lat": 35.561925,
      "lon": 139.7146234
    },
    {
      "name": "大衆酒場晩杯屋　下北沢",
      "address": "東京都世田谷区北沢2-11-3松居ビル地下1階",
      "lat": 35.6611,
      "lon": 139.6683
    },
    {
      "name": "丸亀製麺下北沢",
      "address": "東京都世田谷区北沢2-14-4下北沢ビル1F",
      "lat": 35.6597773,
      "lon": 139.6674674
    },
    {
      "name": "ふたば製麺祖師ヶ谷大蔵",
      "address": "東京都世田谷区祖師谷3-32-1",
      "lat": 35.6433086,
      "lon": 139.6087045
    },
    {
      "name": "丸亀製麺千歳船橋",
      "address": "東京都世田谷区船橋１丁目１-５アジア堂ビル１Ｆ",
      "lat": 35.6476536,
      "lon": 139.623761
    },
    {
      "name": "丸亀製麺駒澤大学",
      "address": "東京都世田谷区駒沢1-23-1駒澤大学内",
      "lat": 35.6289299,
      "lon": 139.6580863
    },
    {
      "name": "譚仔三哥米線恵比寿",
      "address": "東京都渋谷区恵比寿１丁目１０ー７TIB恵比寿ビル１F",
      "lat": 35.6469394,
      "lon": 139.7108233
    },
    {
      "name": "丸亀製麺渋谷メトロプラザ",
      "address": "東京都渋谷区渋谷1-16-14渋谷地下鉄ビルディング1F",
      "lat": 35.6614203,
      "lon": 139.7025453
    },
    {
      "name": "丸亀製麺青山オーバル",
      "address": "東京都渋谷区神宮前5-52-2オーバルビルB1F",
      "lat": 35.6627327,
      "lon": 139.7091697
    },
    {
      "name": "丸亀製麺渋谷道玄坂",
      "address": "東京都渋谷区道玄坂2-9-9梅原ビル1F",
      "lat": 35.6588856,
      "lon": 139.6978954
    },
    {
      "name": "丸亀製麺中野セントラルパーク",
      "address": "東京都中野区中野4-10-2中野セントラルパークサウス2F",
      "lat": 35.7069748,
      "lon": 139.6616308
    },
    {
      "name": "丸亀製麺中野坂上",
      "address": "東京都中野区本町2-46-1中野坂上サンブライトツインビルB1F",
      "lat": 35.6967252,
      "lon": 139.6821014
    },
    {
      "name": "立呑み晩杯屋　新中野",
      "address": "東京都中野区本町4-30-26",
      "lat": 35.6974,
      "lon": 139.6713
    },
    {
      "name": "立呑み晩杯屋 東中野",
      "address": "東京都中野区東中野4-4-5東中野アパートメント106",
      "lat": 35.70653800000001,
      "lon": 139.683808
    },
    {
      "name": "立呑み晩杯屋 野方",
      "address": "東京都中野区野方5-24-6小島ビル1階",
      "lat": 35.71869,
      "lon": 139.65275
    },
    {
      "name": "立呑み晩杯屋　荻窪北口",
      "address": "東京都杉並区上荻1-4-6",
      "lat": 35.7050939,
      "lon": 139.6224624
    },
    {
      "name": "立呑み晩杯屋　高円寺純情",
      "address": "東京都杉並区高円寺北3-23-11",
      "lat": 35.7066,
      "lon": 139.6496
    },
    {
      "name": "いぶきうどん高円寺マシタ",
      "address": "東京都杉並区高円寺南4-47-1",
      "lat": 35.7051937,
      "lon": 139.6494621
    },
    {
      "name": "立呑み晩杯屋 大塚南口",
      "address": "東京都豊島区南大塚3-50-7ボヌール1F",
      "lat": 35.730185,
      "lon": 139.728416
    },
    {
      "name": "立呑み晩杯屋　巣鴨北口",
      "address": "東京都豊島区巣鴨2-4-6",
      "lat": 35.734509,
      "lon": 139.7389809
    },
    {
      "name": "立呑み晩杯屋 池袋東口",
      "address": "東京都豊島区東池袋1-42-17長谷川ビル1F",
      "lat": 35.732684,
      "lon": 139.713415
    },
    {
      "name": "丸亀製麺サンシャインシティアルタ",
      "address": "東京都豊島区東池袋3-1-3サンシャインシティアルタB1F",
      "lat": 35.72873,
      "lon": 139.720001
    },
    {
      "name": "立呑み晩杯屋 十条",
      "address": "東京都北区上十条2-30-9鈴木ビル1F",
      "lat": 35.7613325,
      "lon": 139.7218635
    },
    {
      "name": "丸亀製麺イオンスタイル赤羽",
      "address": "東京都北区神谷3丁目12-1",
      "lat": 35.774441,
      "lon": 139.731977
    },
    {
      "name": "肉のヤマ牛赤羽",
      "address": "東京都北区赤羽2-4-9東拓ビル六番館 1階",
      "lat": 35.7792848,
      "lon": 139.7238791
    },
    {
      "name": "立呑み晩杯屋 京成町屋",
      "address": "東京都荒川区荒川7-22-6フロンティアワンビル1階",
      "lat": 35.7422392,
      "lon": 139.7817634
    },
    {
      "name": "丸亀製麺大山",
      "address": "東京都板橋区大山東町58-2",
      "lat": 35.7488992,
      "lon": 139.7029682
    },
    {
      "name": "立呑み晩杯屋 中板橋",
      "address": "東京都板橋区弥生町33-3西野ビル1F",
      "lat": 35.7554791,
      "lon": 139.6952449
    },
    {
      "name": "丸亀製麺イオン板橋",
      "address": "東京都板橋区徳丸2-6-1イオン板橋3F",
      "lat": 35.7695242,
      "lon": 139.6609268
    },
    {
      "name": "コナズ珈琲板橋",
      "address": "東京都板橋区志村2-12-3",
      "lat": 35.7762672,
      "lon": 139.6901583
    },
    {
      "name": "PALM WAGON板橋",
      "address": "東京都板橋区志村2-12-3",
      "lat": 35.7762672,
      "lon": 139.6901583
    },
    {
      "name": "丸亀製麺上石神井",
      "address": "東京都練馬区上石神井2-17-17",
      "lat": 35.7294864,
      "lon": 139.5959573
    },
    {
      "name": "丸亀製麺光が丘IMA",
      "address": "東京都練馬区光が丘5-1-1",
      "lat": 35.7592344,
      "lon": 139.6285268
    },
    {
      "name": "丸亀製麺環八平和台",
      "address": "東京都練馬区北町6-34-6コンフォール平和台1F",
      "lat": 35.7564199,
      "lon": 139.6493524
    },
    {
      "name": "丸亀製麺ニトリ成増",
      "address": "東京都練馬区旭町3-35-3",
      "lat": 35.7792881,
      "lon": 139.6247584
    },
    {
      "name": "丸亀製麺大泉学園北口",
      "address": "東京都練馬区東大泉1-27-19アラウダ大泉学園1F",
      "lat": 35.750153,
      "lon": 139.587749
    },
    {
      "name": "丸亀製麺石神井公園駅前",
      "address": "東京都練馬区石神井町3-20-17",
      "lat": 35.7430302,
      "lon": 139.6063206
    },
    {
      "name": "丸亀製麺足立",
      "address": "東京都足立区伊興本町1-10-23",
      "lat": 35.798653,
      "lon": 139.788993
    },
    {
      "name": "コナズ珈琲足立",
      "address": "東京都足立区保木間3-31-13",
      "lat": 35.7966837,
      "lon": 139.8098067
    },
    {
      "name": "丸亀製麺足立入谷",
      "address": "東京都足立区入谷8-1-3",
      "lat": 35.80356430000001,
      "lon": 139.7591792
    },
    {
      "name": "丸亀製麺EQUiA北千住",
      "address": "東京都足立区千住旭町42-1東武北千住駅2階コンコース",
      "lat": 35.7488831,
      "lon": 139.8050929
    },
    {
      "name": "いぶきうどんエキア北千住",
      "address": "東京都足立区千住旭町42-1北千住駅構内2階コンコース",
      "lat": 35.7498853,
      "lon": 139.8055848
    },
    {
      "name": "肉のヤマ牛竹ノ塚ピーコックストア",
      "address": "東京都足立区竹の塚6-7-1",
      "lat": 35.7946079,
      "lon": 139.7919936
    },
    {
      "name": "焼きたてコッペ製パン竹ノ塚ピーコックストア",
      "address": "東京都足立区竹の塚6-7-1",
      "lat": 35.794758,
      "lon": 139.791344
    },
    {
      "name": "焼きたてコッペ製パン綾瀬駅北",
      "address": "東京都足立区綾瀬3-1-10千代田線綾瀬駅中間部ホ号",
      "lat": 35.7623049,
      "lon": 139.8252998
    },
    {
      "name": "丸亀製麺綾瀬駅東口",
      "address": "東京都足立区綾瀬3-1-32綾瀬駅高架下",
      "lat": 35.762259,
      "lon": 139.8263388
    },
    {
      "name": "丸亀製麺足立加平",
      "address": "東京都足立区西加平1-2-29",
      "lat": 35.7784668,
      "lon": 139.8219406
    },
    {
      "name": "丸亀製麺エキア竹ノ塚",
      "address": "東京都足立区西竹の塚2-1-2",
      "lat": 35.7939161,
      "lon": 139.7905083
    },
    {
      "name": "丸亀製麺足立鹿浜",
      "address": "東京都足立区鹿浜1-21-1",
      "lat": 35.7782837,
      "lon": 139.755064
    },
    {
      "name": "丸亀製麺アリオ亀有",
      "address": "東京都葛飾区亀有3-49-3アリオ亀有1F",
      "lat": 35.7636496,
      "lon": 139.8526051
    },
    {
      "name": "立呑み晩杯屋 亀有北口",
      "address": "東京都葛飾区亀有5-34-13インベスト亀有2F",
      "lat": 35.7672364,
      "lon": 139.8488062
    },
    {
      "name": "丸亀製麺シャポー小岩",
      "address": "東京都江戸川区南小岩7-24-15シャポー小岩1F",
      "lat": 35.7324122,
      "lon": 139.8805925
    },
    {
      "name": "丸亀製麺江戸川春江",
      "address": "東京都江戸川区春江町2-49-6",
      "lat": 35.7017745,
      "lon": 139.8906199
    },
    {
      "name": "いぶきうどんメトロセンター西葛西",
      "address": "東京都江戸川区西葛西6-14-2メトロセンター西葛西1番街",
      "lat": 35.6644656,
      "lon": 139.8613207
    },
    {
      "name": "長田本庄軒メトロセンター西葛西",
      "address": "東京都江戸川区西葛西6-14-2メトロセンター西葛西1番街",
      "lat": 35.6644778,
      "lon": 139.859833
    },
    {
      "name": "丸亀製麺西葛西メトロセンター",
      "address": "東京都江戸川区西葛西6-7-2西葛西メトロセンター3番街",
      "lat": 35.6646109,
      "lon": 139.8584361
    },
    {
      "name": "肉のヤマ牛西葛西メトロセンター",
      "address": "東京都江戸川区西葛西6-7-2西葛西メトロセンター3番街",
      "lat": 35.6646621,
      "lon": 139.8586701
    },
    {
      "name": "丸亀製麺八王子みなみ野駅前",
      "address": "東京都八王子市みなみ野1-3-1DCM八王子みなみ野1F",
      "lat": 35.6314639,
      "lon": 139.3301234
    },
    {
      "name": "ラー麺ずんどう屋 八王子中野店",
      "address": "東京都八王子市中野町2742-4",
      "lat": 35.6793326,
      "lon": 139.3159392
    },
    {
      "name": "コナズ珈琲多摩ニュータウン",
      "address": "東京都八王子市別所2-40",
      "lat": 35.6148064,
      "lon": 139.397182
    },
    {
      "name": "丸亀製麺八王子アイロード",
      "address": "東京都八王子市旭町13-2",
      "lat": 35.6571283,
      "lon": 139.3411772
    },
    {
      "name": "丸亀製麺八王子",
      "address": "東京都八王子市楢原町623-1",
      "lat": 35.684259,
      "lon": 139.3025257
    },
    {
      "name": "丸亀製麺八王子高倉",
      "address": "東京都八王子市高倉町54-3",
      "lat": 35.6655838,
      "lon": 139.3664574
    },
    {
      "name": "丸亀製麺立川南口",
      "address": "東京都立川市柴崎町3丁目4番2号",
      "lat": 35.6970177,
      "lon": 139.4147173
    },
    {
      "name": "丸亀製麺立川",
      "address": "東京都立川市栄町3-5-1",
      "lat": 35.7084358,
      "lon": 139.422334
    },
    {
      "name": "丸亀製麺手づくり体験教室　東京立川",
      "address": "東京都立川市栄町3-5-1",
      "lat": 35.7083986,
      "lon": 139.4222707
    },
    {
      "name": "丸亀製麺立川若葉",
      "address": "東京都立川市若葉町3-8-1",
      "lat": 35.7213165,
      "lon": 139.4345183
    },
    {
      "name": "立呑み晩杯屋 吉祥寺",
      "address": "東京都武蔵野市吉祥寺本町1-1-3ハモニカ横丁",
      "lat": 35.703578,
      "lon": 139.5790463
    },
    {
      "name": "譚仔三哥米線吉祥寺",
      "address": "東京都武蔵野市吉祥寺本町１丁目8－10　１F",
      "lat": 35.70480680000001,
      "lon": 139.578734
    },
    {
      "name": "丸亀製麺武蔵境",
      "address": "東京都武蔵野市境1-19-1",
      "lat": 35.7043963,
      "lon": 139.5466291
    },
    {
      "name": "いぶきうどん吉祥寺",
      "address": "東京都武蔵野市御殿山1-1-1",
      "lat": 35.7031424,
      "lon": 139.5772546
    },
    {
      "name": "丸亀製麺青梅",
      "address": "東京都青梅市新町5-5-5",
      "lat": 35.786097,
      "lon": 139.3089183
    },
    {
      "name": "丸亀製麺武蔵府中ル・シーニュ",
      "address": "東京都府中市宮町1-100ル・シーニュ1F",
      "lat": 35.6716121,
      "lon": 139.4794196
    },
    {
      "name": "丸亀製麺昭島モリタウン",
      "address": "東京都昭島市代官山2-3-1モリタウン東館2F",
      "lat": 35.7140641,
      "lon": 139.3632697
    },
    {
      "name": "丸亀製麺昭島",
      "address": "東京都昭島市郷地町3-1-3",
      "lat": 35.6937851,
      "lon": 139.3865901
    },
    {
      "name": "コナズ珈琲成城",
      "address": "東京都調布市入間町1-41-1",
      "lat": 35.6528228,
      "lon": 139.5918827
    },
    {
      "name": "立呑み晩杯屋 町田本店",
      "address": "東京都町田市原町田4-1-3原町田4-1-3",
      "lat": 35.5413861,
      "lon": 139.4471267
    },
    {
      "name": "丸亀製麺町田パリオ",
      "address": "東京都町田市森野1-15-13パリオビル　1F",
      "lat": 35.54322,
      "lon": 139.443999
    },
    {
      "name": "丸亀製麺町田金井",
      "address": "東京都町田市金井8-21-13",
      "lat": 35.5776868,
      "lon": 139.4697787
    },
    {
      "name": "丸亀製麺グランベリーパーク",
      "address": "東京都町田市鶴間3-4-1",
      "lat": 35.5083174,
      "lon": 139.4712427
    },
    {
      "name": "ラー麺ずんどう屋 小平天神店",
      "address": "東京都小平市天神町3丁目1-7",
      "lat": 35.73099390000001,
      "lon": 139.4965731
    },
    {
      "name": "丸亀製麺小平",
      "address": "東京都小平市花小金井7-8-4",
      "lat": 35.7305751,
      "lon": 139.5016788
    },
    {
      "name": "コナズ珈琲小平",
      "address": "東京都小平市鈴木町1-217-7",
      "lat": 35.7235634,
      "lon": 139.4977123
    },
    {
      "name": "丸亀製麺イオンモール多摩平の森",
      "address": "東京都日野市多摩平2-4-1イオンモール多摩平の森1F",
      "lat": 35.6620117,
      "lon": 139.3808646
    },
    {
      "name": "豚屋とん一イオンモール多摩平の森",
      "address": "東京都日野市多摩平2-4-1イオンモール多摩平の森1F",
      "lat": 35.6620313,
      "lon": 139.3805948
    },
    {
      "name": "丸亀製麺東村山",
      "address": "東京都東村山市秋津町2-22-6",
      "lat": 35.7684405,
      "lon": 139.4876121
    },
    {
      "name": "丸亀製麺エミオ秋津",
      "address": "東京都東村山市秋津町5-7-8",
      "lat": 35.7783193,
      "lon": 139.4964633
    },
    {
      "name": "丸亀製麺ミーツ国分寺",
      "address": "東京都国分寺市本町3-1-1ミーツ国分寺1F",
      "lat": 35.7007874,
      "lon": 139.4805093
    },
    {
      "name": "肉のヤマ牛小田急マルシェ狛江",
      "address": "東京都狛江市元和泉1-2-2小田急マルシェ狛江1F",
      "lat": 35.6327454,
      "lon": 139.5777838
    },
    {
      "name": "丸亀製麺ニトリ狛江",
      "address": "東京都狛江市岩戸南2-4-3ニトリ狛江ショッピングセンター",
      "lat": 35.6324887,
      "lon": 139.5874003
    },
    {
      "name": "丸亀製麺イオンモール東久留米",
      "address": "東京都東久留米市南沢5-17イオンモール東久留米3F",
      "lat": 35.745038,
      "lon": 139.5273564
    },
    {
      "name": "丸亀製麺イオンモールむさし村山",
      "address": "東京都武蔵村山市榎1-1-3イオンモールむさし村山2F",
      "lat": 35.7468859,
      "lon": 139.3844913
    },
    {
      "name": "肉のヤマ牛イオンモールむさし村山",
      "address": "東京都武蔵村山市榎1-1-3イオンモールむさし村山2F",
      "lat": 35.7468751,
      "lon": 139.384389
    },
    {
      "name": "丸亀製麺武蔵村山",
      "address": "東京都武蔵村山市神明3-133-3",
      "lat": 35.7487766,
      "lon": 139.4065228
    },
    {
      "name": "ラー麺ずんどう屋 羽村栄町店",
      "address": "東京都羽村市栄町1丁目2-38",
      "lat": 35.7746966,
      "lon": 139.3057731
    },
    {
      "name": "丸亀製麺あきる野",
      "address": "東京都あきる野市秋川6-7-10",
      "lat": 35.7298032,
      "lon": 139.2897116
    },
    {
      "name": "丸亀製麺イオンモール日の出",
      "address": "東京都西多摩郡日の出町大字平井字三吉野桜木237-3イオンモール日の出3F",
      "lat": 35.7345049,
      "lon": 139.2752719
    },
    {
      "name": "肉のヤマ牛ジョイフル本田瑞穂",
      "address": "東京都西多摩郡瑞穂町殿ヶ谷442ジョイフル本田瑞穂2F",
      "lat": 35.7608581,
      "lon": 139.3578581
    },
    {
      "name": "肉のヤマ牛MINANO",
      "address": "東京都府中市片町3-22-26MINANO1F",
      "lat": 35.6671009,
      "lon": 139.469468
    },
    {
      "name": "焼きたてコッペ製パンメトロセンター葛西",
      "address": "東京都江戸川区中葛西5-19-17メトロセンター葛西第一",
      "lat": 35.6635909,
      "lon": 139.8714309
    },
    {
      "name": "立呑み晩杯屋 鶴見西口",
      "address": "神奈川県横浜市鶴見区豊岡町17-5",
      "lat": 35.5092409,
      "lon": 139.6753484
    },
    {
      "name": "丸亀製麺横浜片倉町",
      "address": "神奈川県横浜市神奈川区片倉3-3-9",
      "lat": 35.4902788,
      "lon": 139.6063232
    },
    {
      "name": "丸亀製麺MARKISみなとみらい",
      "address": "神奈川県横浜市西区みなとみらい3-5MARKISみなとみらい4Fフードコート内",
      "lat": 35.4574053,
      "lon": 139.6323504
    },
    {
      "name": "丸亀製麺横浜アイマークプレイス",
      "address": "神奈川県横浜市西区みなとみらい4-4-5横浜アイマークプレイス",
      "lat": 35.4602187,
      "lon": 139.6281547
    },
    {
      "name": "丸亀製麺関内",
      "address": "神奈川県横浜市中区吉田町1-1永興ビル1F",
      "lat": 35.4455078,
      "lon": 139.6335136
    },
    {
      "name": "立呑み晩杯屋 桜木町",
      "address": "神奈川県横浜市中区桜木町1-1桜木町ゴールデンセンターB2-B208",
      "lat": 35.45029830000001,
      "lon": 139.6306642
    },
    {
      "name": "丸亀製麺イオン金沢八景",
      "address": "神奈川県横浜市金沢区泥亀1-27-1イオン金沢八景B1F",
      "lat": 35.3342448,
      "lon": 139.6225834
    },
    {
      "name": "丸亀製麺トレッサ横浜",
      "address": "神奈川県横浜市港北区師岡町700トレッサ横浜南棟1F",
      "lat": 35.5241344,
      "lon": 139.6457812
    },
    {
      "name": "丸亀製麺ｷｭｰﾋﾞｯｸﾌﾟﾗｻﾞ新横浜",
      "address": "神奈川県横浜市港北区篠原町2937キュービックプラザ新横浜1F",
      "lat": 35.5083598,
      "lon": 139.6187009
    },
    {
      "name": "ラー麺ずんどう屋 綱島店",
      "address": "神奈川県横浜市港北区綱島西1丁目11-4",
      "lat": 35.5370429,
      "lon": 139.6336042
    },
    {
      "name": "丸亀製麺イオンフードスタイル港南台",
      "address": "神奈川県横浜市港南区港南台3-1-2イオンフードスタイル港南台1F",
      "lat": 35.3758321,
      "lon": 139.5773041
    },
    {
      "name": "丸亀製麺横浜旭",
      "address": "神奈川県横浜市旭区さちが丘43-5",
      "lat": 35.4614852,
      "lon": 139.5230635
    },
    {
      "name": "丸亀製麺横浜上白根",
      "address": "神奈川県横浜市旭区上白根町729-1",
      "lat": 35.5002945,
      "lon": 139.5405416
    },
    {
      "name": "丸亀製麺横浜瀬谷",
      "address": "神奈川県横浜市瀬谷区阿久和西4-1-6",
      "lat": 35.4484116,
      "lon": 139.4990126
    },
    {
      "name": "丸亀製麺横浜栄",
      "address": "神奈川県横浜市栄区中野町123-1",
      "lat": 35.363473,
      "lon": 139.562836
    },
    {
      "name": "丸亀製麺ゆめが丘ソラトス",
      "address": "神奈川県横浜市泉区ゆめが丘31番地ゆめが丘ソラトス1F",
      "lat": 35.4045444,
      "lon": 139.4830441
    },
    {
      "name": "丸亀製麺横浜泉",
      "address": "神奈川県横浜市泉区下和泉2-3-30",
      "lat": 35.3932521,
      "lon": 139.4911982
    },
    {
      "name": "丸亀製麺たまプラーザテラス",
      "address": "神奈川県横浜市青葉区美しが丘1-1-2たまプラーザテラスゲートプラザ1F",
      "lat": 35.5781095,
      "lon": 139.5597389
    },
    {
      "name": "丸亀製麺モザイクモール港北",
      "address": "神奈川県横浜市都筑区中川中央1-31-1モザイクモール港北B1F",
      "lat": 35.5549315,
      "lon": 139.5786098
    },
    {
      "name": "丸亀製麺横浜北山田",
      "address": "神奈川県横浜市都筑区北山田2-16-13",
      "lat": 35.559508,
      "lon": 139.5969136
    },
    {
      "name": "丸亀製麺コーナン港北センター南",
      "address": "神奈川県横浜市都筑区茅ヶ崎中央53-1コーナン港北センター南1F",
      "lat": 35.546689,
      "lon": 139.576343
    },
    {
      "name": "コナズ珈琲新百合ヶ丘",
      "address": "神奈川県川崎市麻生区上麻生4-14-2",
      "lat": 35.5949277,
      "lon": 139.5074662
    },
    {
      "name": "丸亀製麺川崎ルフロン",
      "address": "神奈川県川崎市川崎区日進町1-11川崎ルフロン2F",
      "lat": 35.5294013,
      "lon": 139.6967214
    },
    {
      "name": "立呑み晩杯屋 川崎",
      "address": "神奈川県川崎市川崎区砂子1-10-1平山ビル1階",
      "lat": 35.5312156,
      "lon": 139.7020076
    },
    {
      "name": "丸亀製麺川崎子母口",
      "address": "神奈川県川崎市高津区子母口316-1",
      "lat": 35.57121679999999,
      "lon": 139.6320044
    },
    {
      "name": "ふたば製麺アトレ川崎",
      "address": "神奈川県川崎市川崎区駅前本町26-1アトレ川崎 北側改札内 3F",
      "lat": 35.5317458,
      "lon": 139.6976939
    },
    {
      "name": "丸亀製麺武蔵小杉",
      "address": "神奈川県川崎市中原区小杉町3-430中村ビル 1F",
      "lat": 35.5747195,
      "lon": 139.6586655
    },
    {
      "name": "立呑み晩杯屋 新丸子",
      "address": "神奈川県川崎市中原区新丸子町738-1",
      "lat": 35.5806,
      "lon": 139.6616
    },
    {
      "name": "丸亀製麺川崎津田山",
      "address": "神奈川県川崎市高津区下作延7-2-22",
      "lat": 35.6027187,
      "lon": 139.6028801
    },
    {
      "name": "立ち呑み晩杯屋 溝ノ口",
      "address": "神奈川県川崎市高津区溝口2-7-4スタティオ17 1階",
      "lat": 35.6003,
      "lon": 139.6102
    },
    {
      "name": "丸亀製麺川崎多摩",
      "address": "神奈川県川崎市多摩区菅馬場2-4-12",
      "lat": 35.62727590000001,
      "lon": 139.5411278
    },
    {
      "name": "丸亀製麺川崎宮前",
      "address": "神奈川県川崎市宮前区水沢3-3-6",
      "lat": 35.5931473,
      "lon": 139.5451965
    },
    {
      "name": "丸亀製麺川崎馬絹",
      "address": "神奈川県川崎市宮前区馬絹1-25-34",
      "lat": 35.5801964,
      "lon": 139.583847
    },
    {
      "name": "丸亀製麺新百合丘オーパ",
      "address": "神奈川県川崎市麻生区上麻生1-1-1新百合丘オーパB1F",
      "lat": 35.6036465,
      "lon": 139.5083506
    },
    {
      "name": "丸亀製麺相模原下九沢",
      "address": "神奈川県相模原市緑区下九沢474-2",
      "lat": 35.5707274,
      "lon": 139.3500453
    },
    {
      "name": "丸亀製麺相模原",
      "address": "神奈川県相模原市緑区谷ヶ原2-640-4",
      "lat": 35.5906851,
      "lon": 139.2921641
    },
    {
      "name": "丸亀製麺相模原中央",
      "address": "神奈川県相模原市中央区中央1-5-3",
      "lat": 35.5752983,
      "lon": 139.3683014
    },
    {
      "name": "丸亀製麺相模原鵜野森",
      "address": "神奈川県相模原市南区鵜野森1-10-17",
      "lat": 35.5448678,
      "lon": 139.4276791
    },
    {
      "name": "丸亀製麺Coaska Bayside Stores",
      "address": "神奈川県横須賀市本町2-1-12Coaska Bayside Stores 2F",
      "lat": 35.2832417,
      "lon": 139.662747
    },
    {
      "name": "丸亀製麺横須賀野比",
      "address": "神奈川県横須賀市野比1-2-27",
      "lat": 35.2210108,
      "lon": 139.6837696
    },
    {
      "name": "丸亀製麺ラスカ平塚",
      "address": "神奈川県平塚市宝町1-1ラスカ平塚3F",
      "lat": 35.3279796,
      "lon": 139.3502402
    },
    {
      "name": "丸亀製麺平塚田村",
      "address": "神奈川県平塚市田村2-1-9",
      "lat": 35.3687863,
      "lon": 139.3612175
    },
    {
      "name": "丸亀製麺藤沢",
      "address": "神奈川県藤沢市善行6-1-1",
      "lat": 35.3646502,
      "lon": 139.4734986
    },
    {
      "name": "丸亀製麺湘南台",
      "address": "神奈川県藤沢市湘南台4丁目10-15",
      "lat": 35.3971489,
      "lon": 139.4622117
    },
    {
      "name": "丸亀製麺湘南モールフィル",
      "address": "神奈川県藤沢市辻堂新町4-1-1湘南モールフィル2F",
      "lat": 35.3388534,
      "lon": 139.464659
    },
    {
      "name": "丸亀製麺小田原",
      "address": "神奈川県小田原市中里403-1",
      "lat": 35.2860202,
      "lon": 139.1858652
    },
    {
      "name": "丸亀製麺ラスカ小田原",
      "address": "神奈川県小田原市栄町1-1-9ラスカ小田原2F",
      "lat": 35.2560969,
      "lon": 139.15617
    },
    {
      "name": "丸亀製麺ラスカ茅ヶ崎",
      "address": "神奈川県茅ヶ崎市元町1-1ラスカ茅ヶ崎3F",
      "lat": 35.330364,
      "lon": 139.4061445
    },
    {
      "name": "丸亀製麺茅ヶ崎",
      "address": "神奈川県茅ヶ崎市小和田1-1-70",
      "lat": 35.33754580000001,
      "lon": 139.4277826
    },
    {
      "name": "コナズ珈琲茅ヶ崎",
      "address": "神奈川県茅ヶ崎市松尾1-6",
      "lat": 35.3276527,
      "lon": 139.3884007
    },
    {
      "name": "丸亀製麺厚木",
      "address": "神奈川県厚木市及川1008-1",
      "lat": 35.4693503,
      "lon": 139.3409987
    },
    {
      "name": "丸亀製麺厚木インター",
      "address": "神奈川県厚木市岡田3025",
      "lat": 35.423381,
      "lon": 139.3592273
    },
    {
      "name": "丸亀製麺厚木北",
      "address": "神奈川県厚木市関口826",
      "lat": 35.4913229,
      "lon": 139.3643883
    },
    {
      "name": "丸亀製麺イトーヨーカドー大和鶴間",
      "address": "神奈川県大和市下鶴間1-3-1",
      "lat": 35.4900823,
      "lon": 139.4571516
    },
    {
      "name": "丸亀製麺りんかんモール",
      "address": "神奈川県大和市中央林間7-6-1",
      "lat": 35.5026145,
      "lon": 139.4508215
    },
    {
      "name": "ラー麺ずんどう屋 大和中央林間",
      "address": "神奈川県大和市中央林間西6-2-11",
      "lat": 35.5013133,
      "lon": 139.4325467
    },
    {
      "name": "丸亀製麺大和",
      "address": "神奈川県大和市深見台1-12-2",
      "lat": 35.4643936,
      "lon": 139.4672241
    },
    {
      "name": "丸亀製麺伊勢原",
      "address": "神奈川県伊勢原市神戸549-4",
      "lat": 35.3958298,
      "lon": 139.2900954
    },
    {
      "name": "丸亀製麺ビナウォーク",
      "address": "神奈川県海老名市中央1-4-1ビナウォーク3番館1F",
      "lat": 35.4519691,
      "lon": 139.3934937
    },
    {
      "name": "丸亀製麺海老名",
      "address": "神奈川県海老名市本郷1721",
      "lat": 35.4064573,
      "lon": 139.3878344
    },
    {
      "name": "丸亀製麺イオンモール座間",
      "address": "神奈川県座間市広野台2-10-4イオンモール座間3F",
      "lat": 35.5009821,
      "lon": 139.425995
    },
    {
      "name": "コナズ珈琲神奈川綾瀬",
      "address": "神奈川県綾瀬市深谷中1-4-35",
      "lat": 35.4319798,
      "lon": 139.4306811
    },
    {
      "name": "丸亀製麺大井松田",
      "address": "神奈川県足柄上郡大井町上大井255-1",
      "lat": 35.3184435,
      "lon": 139.1590917
    },
    {
      "name": "丸亀製麺横浜駒岡",
      "address": "神奈川県横浜市鶴見区駒岡3-2-22",
      "lat": 35.5250963,
      "lon": 139.6554069
    },
    {
      "name": "丸亀製麺新潟河渡",
      "address": "新潟県新潟市東区河渡本町16-21",
      "lat": 37.9336097,
      "lon": 139.1043092
    },
    {
      "name": "丸亀製麺DEKKY401",
      "address": "新潟県新潟市中央区上近江4-12-20DEKKY401-2F",
      "lat": 37.898471,
      "lon": 139.0296191
    },
    {
      "name": "丸亀製麺CoCoLo新潟",
      "address": "新潟県新潟市中央区花園1-1-1CoCoLo新潟2F",
      "lat": 37.9120292,
      "lon": 139.0617888
    },
    {
      "name": "丸亀製麺新潟中央",
      "address": "新潟県新潟市中央区紫竹山1-3-6",
      "lat": 37.9007607,
      "lon": 139.0657349
    },
    {
      "name": "丸亀製麺新潟亀田",
      "address": "新潟県新潟市江南区早苗2-3-28",
      "lat": 37.8701873,
      "lon": 139.0902109
    },
    {
      "name": "丸亀製麺新潟新津",
      "address": "新潟県新潟市秋葉区さつき野4-20-33",
      "lat": 37.8070177,
      "lon": 139.1153628
    },
    {
      "name": "丸亀製麺新潟小針",
      "address": "新潟県新潟市西区小針5-17-8",
      "lat": 37.8857418,
      "lon": 138.993451
    },
    {
      "name": "丸亀製麺長岡宮内",
      "address": "新潟県長岡市宮内町字山伏3254-1",
      "lat": 37.4220429,
      "lon": 138.8471828
    },
    {
      "name": "丸亀製麺長岡",
      "address": "新潟県長岡市寺島町7-8",
      "lat": 37.4617042,
      "lon": 138.8213221
    },
    {
      "name": "丸亀製麺三条",
      "address": "新潟県三条市西裏館3-2-1",
      "lat": 37.640534,
      "lon": 138.9573476
    },
    {
      "name": "丸亀製麺新発田",
      "address": "新潟県新発田市小舟町3-3-3",
      "lat": 37.9643653,
      "lon": 139.3176821
    },
    {
      "name": "丸亀製麺燕",
      "address": "新潟県燕市吉田3488-1",
      "lat": 37.6950496,
      "lon": 138.8860073
    },
    {
      "name": "丸亀製麺上越",
      "address": "新潟県上越市大字土橋1616-2",
      "lat": 37.1291154,
      "lon": 138.246472
    },
    {
      "name": "丸亀製麺富山五福",
      "address": "富山県富山市五福3518-3",
      "lat": 36.7019168,
      "lon": 137.188147
    },
    {
      "name": "丸亀製麺富山",
      "address": "富山県富山市今泉西部町3-10",
      "lat": 36.672283,
      "lon": 137.2101563
    },
    {
      "name": "丸亀製麺富山荒川",
      "address": "富山県富山市荒川2-21-25",
      "lat": 36.6965776,
      "lon": 137.2504571
    },
    {
      "name": "丸亀製麺富山豊田町",
      "address": "富山県富山市豊田町2-12-52",
      "lat": 36.720085,
      "lon": 137.2343589
    },
    {
      "name": "丸亀製麺高岡あわら町",
      "address": "富山県高岡市あわら町3-2",
      "lat": 36.7543186,
      "lon": 137.0200037
    },
    {
      "name": "丸亀製麺イオンモール高岡",
      "address": "富山県高岡市下伏間江383イオンモール高岡1F",
      "lat": 36.7242169,
      "lon": 137.0140462
    },
    {
      "name": "丸亀製麺滑川",
      "address": "富山県滑川市沖田新28",
      "lat": 36.7540902,
      "lon": 137.3449408
    },
    {
      "name": "丸亀製麺黒部",
      "address": "富山県黒部市荻生5258-1",
      "lat": 36.8722285,
      "lon": 137.4560463
    },
    {
      "name": "丸亀製麺砺波",
      "address": "富山県砺波市太郎丸1-11-25",
      "lat": 36.6314229,
      "lon": 136.9567089
    },
    {
      "name": "丸亀製麺射水",
      "address": "富山県射水市橋下条1477-1",
      "lat": 36.7174962,
      "lon": 137.082333
    },
    {
      "name": "丸亀製麺金沢もりの里",
      "address": "石川県金沢市もりの里2-181",
      "lat": 36.5558548,
      "lon": 136.6850739
    },
    {
      "name": "丸亀製麺金沢八日市",
      "address": "石川県金沢市八日市4-328",
      "lat": 36.5486278,
      "lon": 136.6069398
    },
    {
      "name": "丸亀製麺金沢有松",
      "address": "石川県金沢市有松4-1-1",
      "lat": 36.541496,
      "lon": 136.6393297
    },
    {
      "name": "丸亀製麺金沢畝田",
      "address": "石川県金沢市畝田西1-3-1",
      "lat": 36.5943871,
      "lon": 136.6060182
    },
    {
      "name": "丸亀製麺金沢",
      "address": "石川県金沢市長土塀2-6-33",
      "lat": 36.567902,
      "lon": 136.644789
    },
    {
      "name": "ラー麺ずんどう屋 金沢駅西本町店",
      "address": "石川県金沢市駅西本町5-2-17",
      "lat": 36.5833847,
      "lon": 136.6290216
    },
    {
      "name": "丸亀製麺小松",
      "address": "石川県小松市今江町4-49",
      "lat": 36.3804623,
      "lon": 136.4457492
    },
    {
      "name": "丸亀製麺イオンモール新小松",
      "address": "石川県小松市清六町315イオンモール新小松2F",
      "lat": 36.3949896,
      "lon": 136.4669363
    },
    {
      "name": "丸亀製麺羽咋",
      "address": "石川県羽咋市石野町ト10-1",
      "lat": 36.8947449,
      "lon": 136.795929
    },
    {
      "name": "丸亀製麺イオンモールかほく",
      "address": "石川県かほく市内日角タ25イオンモールかほく2F",
      "lat": 36.709206,
      "lon": 136.7011031
    },
    {
      "name": "ラー麺ずんどう屋 石川松任店",
      "address": "石川県白山市田中町204",
      "lat": 36.527082,
      "lon": 136.5881858
    },
    {
      "name": "ラー麺ずんどう屋 福井大和田",
      "address": "福井県福井市大和田1丁目608",
      "lat": 36.0942307,
      "lon": 136.2507809
    },
    {
      "name": "丸亀製麺フェアモール福井",
      "address": "福井県福井市大和田2-1212フェアモール2F",
      "lat": 36.0955935,
      "lon": 136.2496439
    },
    {
      "name": "丸亀製麺福井",
      "address": "福井県福井市花堂北1-12-19",
      "lat": 36.0395975,
      "lon": 136.2143366
    },
    {
      "name": "ラー麺ずんどう屋 敦賀店",
      "address": "福井県敦賀市木崎5-2-1",
      "lat": 35.6375122,
      "lon": 136.0483693
    },
    {
      "name": "丸亀製麺敦賀",
      "address": "福井県敦賀市櫛川13-1-1",
      "lat": 35.6455015,
      "lon": 136.0485735
    },
    {
      "name": "丸亀製麺小浜",
      "address": "福井県小浜市遠敷5-401-5",
      "lat": 35.4822233,
      "lon": 135.7782237
    },
    {
      "name": "丸亀製麺越前",
      "address": "福井県越前市芝原4-5-28",
      "lat": 35.9190845,
      "lon": 136.1571867
    },
    {
      "name": "丸亀製麺春江",
      "address": "福井県坂井市春江町随応寺24字3",
      "lat": 36.1332038,
      "lon": 136.221037
    },
    {
      "name": "コナズ珈琲甲府",
      "address": "山梨県甲府市徳行2-13-30",
      "lat": 35.6513966,
      "lon": 138.5453812
    },
    {
      "name": "丸亀製麺甲斐",
      "address": "山梨県甲斐市中下条字三味堂908-3",
      "lat": 35.6763891,
      "lon": 138.5248117
    },
    {
      "name": "丸亀製麺ラザウォーク甲斐双葉",
      "address": "山梨県甲斐市志田字柿木645-1ﾗｻﾞｳｫｰｸ甲斐双葉 2F",
      "lat": 35.6848156,
      "lon": 138.4836907
    },
    {
      "name": "丸亀製麺石和",
      "address": "山梨県笛吹市石和町四日市場1613-2",
      "lat": 35.6436398,
      "lon": 138.6285507
    },
    {
      "name": "丸亀製麺甲州",
      "address": "山梨県甲州市塩山下於曽字町田1377",
      "lat": 35.6967867,
      "lon": 138.7235077
    },
    {
      "name": "丸亀製麺甲府昭和",
      "address": "山梨県中巨摩郡昭和町清水新居461",
      "lat": 35.6442345,
      "lon": 138.5532262
    },
    {
      "name": "豚屋とん一イオンモール甲府昭和",
      "address": "山梨県中巨摩郡昭和町飯喰1505-1イオンモール甲府昭和3F",
      "lat": 35.6231792,
      "lon": 138.5274849
    },
    {
      "name": "丸亀製麺河口湖ベル",
      "address": "山梨県南都留郡富士河口湖町船津2986",
      "lat": 35.4902009,
      "lon": 138.7643193
    },
    {
      "name": "丸亀製麺長野",
      "address": "長野県長野市小島110-11",
      "lat": 36.6574196,
      "lon": 138.2515199
    },
    {
      "name": "丸亀製麺川中島",
      "address": "長野県長野市川中島町御厨981",
      "lat": 36.5966264,
      "lon": 138.1577447
    },
    {
      "name": "丸亀製麺松本村井",
      "address": "長野県松本市村井町北2-1-73",
      "lat": 36.1881944,
      "lon": 137.9643757
    },
    {
      "name": "丸亀製麺上田",
      "address": "長野県上田市国分864-1",
      "lat": 36.3848411,
      "lon": 138.2669883
    },
    {
      "name": "丸亀製麺アリオ上田",
      "address": "長野県上田市天神3-5-1アリオ上田2F",
      "lat": 36.3994061,
      "lon": 138.2440398
    },
    {
      "name": "丸亀製麺飯田上郷",
      "address": "長野県飯田市上郷飯沼2008-1",
      "lat": 35.5188368,
      "lon": 137.8497886
    },
    {
      "name": "丸亀製麺伊那",
      "address": "長野県伊那市山寺263-1",
      "lat": 35.8484726,
      "lon": 137.9687347
    },
    {
      "name": "丸亀製麺信州中野",
      "address": "長野県中野市一本木7-1",
      "lat": 36.7579395,
      "lon": 138.3698223
    },
    {
      "name": "丸亀製麺茅野",
      "address": "長野県茅野市塚原1-12-12",
      "lat": 35.9996616,
      "lon": 138.1538071
    },
    {
      "name": "丸亀製麺塩尻",
      "address": "長野県塩尻市大門泉町12-15",
      "lat": 36.1189325,
      "lon": 137.9598709
    },
    {
      "name": "丸亀製麺佐久",
      "address": "長野県佐久市岩村田3630-1",
      "lat": 36.2825421,
      "lon": 138.4822124
    },
    {
      "name": "丸亀製麺千曲",
      "address": "長野県千曲市大字粟佐1562-1",
      "lat": 36.53564739999999,
      "lon": 138.1225814
    },
    {
      "name": "丸亀製麺安曇野",
      "address": "長野県安曇野市豊科南穂高613-9",
      "lat": 36.301021,
      "lon": 137.9168616
    },
    {
      "name": "丸亀製麺諏訪",
      "address": "長野県諏訪郡下諏訪町6191-5",
      "lat": 36.0679443,
      "lon": 138.0955894
    },
    {
      "name": "丸亀製麺岐阜東",
      "address": "岐阜県岐阜市入舟町3-28-1",
      "lat": 35.411222,
      "lon": 136.7779386
    },
    {
      "name": "丸亀製麺岐阜北",
      "address": "岐阜県岐阜市則武東3-15-15",
      "lat": 35.4430288,
      "lon": 136.7462688
    },
    {
      "name": "丸亀製麺カラフルタウン岐阜",
      "address": "岐阜県岐阜市柳津町丸野3-3-6カラフルタウン岐阜1F",
      "lat": 35.3625047,
      "lon": 136.7286676
    },
    {
      "name": "コナズ珈琲カラフルタウン岐阜",
      "address": "岐阜県岐阜市柳津町丸野3-3-6カラフルタウン岐阜1F",
      "lat": 35.3623193,
      "lon": 136.7313498
    },
    {
      "name": "丸亀製麺柳津",
      "address": "岐阜県岐阜市柳津町蓮池2-9",
      "lat": 35.3679504,
      "lon": 136.747345
    },
    {
      "name": "丸亀製麺マーサ２１",
      "address": "岐阜県岐阜市正木中1-2-1マーサ21 1F",
      "lat": 35.4479708,
      "lon": 136.7451141
    },
    {
      "name": "ラー麺ずんどう屋 岐阜茜部",
      "address": "岐阜県岐阜市茜部菱野1丁目12-2",
      "lat": 35.3881769,
      "lon": 136.7526827
    },
    {
      "name": "丸亀製麺岐阜",
      "address": "岐阜県岐阜市西荘4-1-40",
      "lat": 35.4095576,
      "lon": 136.7195817
    },
    {
      "name": "丸亀製麺大垣",
      "address": "岐阜県大垣市安井町6-1",
      "lat": 35.3548813,
      "lon": 136.6328125
    },
    {
      "name": "ラー麺ずんどう屋 大垣店",
      "address": "岐阜県大垣市禾森町4丁目54",
      "lat": 35.3522754,
      "lon": 136.6231051
    },
    {
      "name": "丸亀製麺多治見",
      "address": "岐阜県多治見市光ヶ丘1-21",
      "lat": 35.3461456,
      "lon": 137.110199
    },
    {
      "name": "丸亀製麺サンサンシティマーゴ",
      "address": "岐阜県関市倉知516サンサンシティマーゴ1F",
      "lat": 35.4796141,
      "lon": 136.9007557
    },
    {
      "name": "丸亀製麺中津川",
      "address": "岐阜県中津川市かやの木町1-48",
      "lat": 35.4904253,
      "lon": 137.5003063
    },
    {
      "name": "丸亀製麺イオンタウン各務原",
      "address": "岐阜県各務原市蘇原花園町1-35",
      "lat": 35.4119682,
      "lon": 136.8473358
    },
    {
      "name": "丸亀製麺イオンモール各務原",
      "address": "岐阜県各務原市那加萱場町3-8イオンモール各務原3F",
      "lat": 35.392252,
      "lon": 136.8233824
    },
    {
      "name": "丸亀製麺鵜沼",
      "address": "岐阜県各務原市鵜沼西町1-409-1",
      "lat": 35.4032802,
      "lon": 136.9310419
    },
    {
      "name": "丸亀製麺可児",
      "address": "岐阜県可児市広見2337-1",
      "lat": 35.4138721,
      "lon": 137.0602817
    },
    {
      "name": "丸亀製麺モレラ岐阜",
      "address": "岐阜県本巣市三橋1100モレラ岐阜2F",
      "lat": 35.4539015,
      "lon": 136.6729237
    },
    {
      "name": "長田本庄軒モレラ岐阜",
      "address": "岐阜県本巣市三橋1100モレラ岐阜2F",
      "lat": 35.4543145,
      "lon": 136.6730091
    },
    {
      "name": "丸亀製麺垂井",
      "address": "岐阜県不破郡垂井町表佐字番切4801-1",
      "lat": 35.367324,
      "lon": 136.5557283
    },
    {
      "name": "丸亀製麺静岡清水",
      "address": "静岡県静岡市清水区本郷町10-20",
      "lat": 35.0251407,
      "lon": 138.4868819
    },
    {
      "name": "丸亀製麺静岡呉服町",
      "address": "静岡県静岡市葵区呉服町1-6-3呉服町松下ビル1F",
      "lat": 34.9753241,
      "lon": 138.3810557
    },
    {
      "name": "丸亀製麺静岡城北",
      "address": "静岡県静岡市葵区城北2-1-6",
      "lat": 35.00202290000001,
      "lon": 138.3916825
    },
    {
      "name": "丸亀製麺静岡インター",
      "address": "静岡県静岡市駿河区中野新田324-8",
      "lat": 34.9505928,
      "lon": 138.3884876
    },
    {
      "name": "丸亀製麺静岡池田",
      "address": "静岡県静岡市駿河区池田402-1",
      "lat": 34.98642,
      "lon": 138.4234973
    },
    {
      "name": "丸亀製麺イオンモール浜松市野",
      "address": "静岡県浜松市中央区天王町字諏訪1981-3イオンモール浜松市野2F",
      "lat": 34.7406824,
      "lon": 137.7641081
    },
    {
      "name": "コナズ珈琲浜松",
      "address": "静岡県浜松市中央区小池町字一里山2425-1",
      "lat": 34.741674,
      "lon": 137.7628436
    },
    {
      "name": "丸亀製麺浜北",
      "address": "静岡県浜松市浜名区西中瀬2-15",
      "lat": 34.8228937,
      "lon": 137.8061361
    },
    {
      "name": "丸亀製麺浜松西塚",
      "address": "静岡県浜松市中央区西塚町303-6",
      "lat": 34.7183179,
      "lon": 137.7582062
    },
    {
      "name": "肉のヤマ牛プレ葉ウォーク浜北",
      "address": "静岡県浜松市浜名区貴布祢1200プレ葉ウォーク浜北2F",
      "lat": 34.7975943,
      "lon": 137.7792954
    },
    {
      "name": "丸亀製麺浜松東若林",
      "address": "静岡県浜松市中央区東若林町1220-1",
      "lat": 34.6877899,
      "lon": 137.7110223
    },
    {
      "name": "丸亀製麺浜松",
      "address": "静岡県浜松市中央区三方原町516-2",
      "lat": 34.7770515,
      "lon": 137.7122623
    },
    {
      "name": "丸亀製麺プレ葉ウォーク浜北",
      "address": "静岡県浜松市浜名区貴布祢1200プレ葉ウォーク浜北2F",
      "lat": 34.7975943,
      "lon": 137.7792954
    },
    {
      "name": "丸亀製麺沼津",
      "address": "静岡県沼津市岡一色471-3",
      "lat": 35.1337817,
      "lon": 138.8729436
    },
    {
      "name": "コナズ珈琲三島",
      "address": "静岡県三島市玉川263",
      "lat": 35.1089834,
      "lon": 138.9123443
    },
    {
      "name": "丸亀製麺三島青木",
      "address": "静岡県三島市青木143-1",
      "lat": 35.1034927,
      "lon": 138.9222433
    },
    {
      "name": "丸亀製麺富士宮",
      "address": "静岡県富士宮市中央町2-2",
      "lat": 35.2243952,
      "lon": 138.6141713
    },
    {
      "name": "丸亀製麺島田",
      "address": "静岡県島田市御仮屋町8766-1",
      "lat": 34.8356609,
      "lon": 138.1896506
    },
    {
      "name": "丸亀製麺富士",
      "address": "静岡県富士市八代町4-1",
      "lat": 35.1525419,
      "lon": 138.6941708
    },
    {
      "name": "丸亀製麺富士厚原",
      "address": "静岡県富士市厚原13-1",
      "lat": 35.1831125,
      "lon": 138.6581021
    },
    {
      "name": "丸亀製麺磐田",
      "address": "静岡県磐田市上岡田1044-1",
      "lat": 34.6985678,
      "lon": 137.8518766
    },
    {
      "name": "丸亀製麺ららぽーと磐田",
      "address": "静岡県磐田市高見丘1200ららぽーと磐田1F",
      "lat": 34.7497868,
      "lon": 137.8420485
    },
    {
      "name": "肉のヤマ牛ららぽーと磐田",
      "address": "静岡県磐田市高見丘1200ららぽーと磐田1F",
      "lat": 34.750361,
      "lon": 137.8403285
    },
    {
      "name": "丸亀製麺焼津",
      "address": "静岡県焼津市八楠3-16-11",
      "lat": 34.8798833,
      "lon": 138.3079247
    },
    {
      "name": "丸亀製麺掛川",
      "address": "静岡県掛川市大池2930-3",
      "lat": 34.7747771,
      "lon": 137.9923378
    },
    {
      "name": "丸亀製麺藤枝",
      "address": "静岡県藤枝市田沼2-19-26",
      "lat": 34.8477116,
      "lon": 138.2588752
    },
    {
      "name": "コナズ珈琲御殿場",
      "address": "静岡県御殿場市西田中字松ノ木割51-1",
      "lat": 35.3062809,
      "lon": 138.924613
    },
    {
      "name": "丸亀製麺袋井",
      "address": "静岡県袋井市川井1190-1",
      "lat": 34.7470114,
      "lon": 137.910437
    },
    {
      "name": "丸亀製麺裾野",
      "address": "静岡県裾野市平松547-10",
      "lat": 35.1704468,
      "lon": 138.9077709
    },
    {
      "name": "丸亀製麺湖西",
      "address": "静岡県湖西市鷲津3509",
      "lat": 34.7069511,
      "lon": 137.5455914
    },
    {
      "name": "丸亀製麺菊川",
      "address": "静岡県菊川市加茂489-1",
      "lat": 34.7499802,
      "lon": 138.0798518
    },
    {
      "name": "丸亀製麺伊豆の国",
      "address": "静岡県伊豆の国市田京167-1",
      "lat": 35.0119488,
      "lon": 138.9434145
    },
    {
      "name": "丸亀製麺イオンモール熱田",
      "address": "愛知県名古屋市熱田区六野1-2-11イオンモール熱田2F",
      "lat": 35.1368296,
      "lon": 136.9097564
    },
    {
      "name": "ラー麺ずんどう屋 野並店",
      "address": "愛知県名古屋市天白区古川町144番地",
      "lat": 35.1025534,
      "lon": 136.9544772
    },
    {
      "name": "ラー麺ずんどう屋 守山店",
      "address": "愛知県名古屋市守山区野萩町1-52",
      "lat": 35.1991935,
      "lon": 136.9876482
    },
    {
      "name": "丸亀製麺長喜町",
      "address": "愛知県名古屋市北区長喜町3-24-1",
      "lat": 35.204089,
      "lon": 136.919066
    },
    {
      "name": "丸亀製麺ｍｏｚｏｗｏｎｄｅｒｃｉｔｙ",
      "address": "愛知県名古屋市西区二方町40mozowondercity本棟3F",
      "lat": 35.2245178,
      "lon": 136.8840735
    },
    {
      "name": "丸亀製麺名古屋スパイラルタワーズ",
      "address": "愛知県名古屋市中村区名駅4-27-1モード学園スパイラルタワーズB1F",
      "lat": 35.1681778,
      "lon": 136.8857033
    },
    {
      "name": "丸亀製麺名駅サンロード",
      "address": "愛知県名古屋市中村区名駅4-7-25",
      "lat": 35.1696741,
      "lon": 136.8848208
    },
    {
      "name": "丸亀製麺大須",
      "address": "愛知県名古屋市中区大須4-10-66",
      "lat": 35.15893,
      "lon": 136.9063541
    },
    {
      "name": "丸亀製麺テラッセ納屋橋",
      "address": "愛知県名古屋市中区栄1-2-49テラッセ納屋橋2F",
      "lat": 35.1672245,
      "lon": 136.8927546
    },
    {
      "name": "丸亀製麺昭和白金",
      "address": "愛知県名古屋市昭和区福江3-502-1",
      "lat": 35.1440936,
      "lon": 136.9142871
    },
    {
      "name": "丸亀製麺松葉公園",
      "address": "愛知県名古屋市中川区篠原橋通2-2-1",
      "lat": 35.1409035,
      "lon": 136.8698578
    },
    {
      "name": "丸亀製麺当知",
      "address": "愛知県名古屋市港区明正1-245-1",
      "lat": 35.114148,
      "lon": 136.8452434
    },
    {
      "name": "丸亀製麺イオンモール名古屋茶屋",
      "address": "愛知県名古屋市港区西茶屋2-11イオンモール名古屋茶屋3F",
      "lat": 35.1038622,
      "lon": 136.8249815
    },
    {
      "name": "丸亀製麺千竈通",
      "address": "愛知県名古屋市南区千竈通4-4-1",
      "lat": 35.103508,
      "lon": 136.9247131
    },
    {
      "name": "丸亀製麺イオンモール新瑞橋",
      "address": "愛知県名古屋市南区菊住1-7-10イオンモール新瑞橋3F",
      "lat": 35.1147073,
      "lon": 136.9353123
    },
    {
      "name": "丸亀製麺守山",
      "address": "愛知県名古屋市守山区小幡宮ノ腰10-12",
      "lat": 35.19538319999999,
      "lon": 136.974528
    },
    {
      "name": "コナズ珈琲守山",
      "address": "愛知県名古屋市守山区森孝東1-446",
      "lat": 35.1920706,
      "lon": 137.0194661
    },
    {
      "name": "丸亀製麺守山瀬古東",
      "address": "愛知県名古屋市守山区瀬古東3-1918",
      "lat": 35.2117767,
      "lon": 136.9454346
    },
    {
      "name": "丸亀製麺ヒルズウォーク徳重ガーデンズ",
      "address": "愛知県名古屋市緑区元徳重1-505ヒルズウォーク徳重ガーデンズ2F",
      "lat": 35.0947891,
      "lon": 136.9991235
    },
    {
      "name": "丸亀製麺イオンモール大高",
      "address": "愛知県名古屋市緑区南大高2-450イオンモール大高3F",
      "lat": 35.0528032,
      "lon": 136.9471966
    },
    {
      "name": "丸亀製麺鴻仏目",
      "address": "愛知県名古屋市緑区鴻仏目2-302",
      "lat": 35.0809746,
      "lon": 136.9810181
    },
    {
      "name": "丸亀製麺野並",
      "address": "愛知県名古屋市天白区野並2-427",
      "lat": 35.1035423,
      "lon": 136.9563904
    },
    {
      "name": "丸亀製麺豊橋曙町",
      "address": "愛知県豊橋市曙町147-1",
      "lat": 34.7276492,
      "lon": 137.4013611
    },
    {
      "name": "丸亀製麺豊橋藤沢",
      "address": "愛知県豊橋市藤沢町140",
      "lat": 34.74527399999999,
      "lon": 137.3720631
    },
    {
      "name": "丸亀製麺豊橋",
      "address": "愛知県豊橋市豊岡町179",
      "lat": 34.7570463,
      "lon": 137.4221633
    },
    {
      "name": "丸亀製麺岡崎北",
      "address": "愛知県岡崎市岩津町字生平23-2",
      "lat": 35.001879,
      "lon": 137.168277
    },
    {
      "name": "丸亀製麺イオンモール岡崎",
      "address": "愛知県岡崎市戸崎町字外山38-5イオンモール岡崎3F",
      "lat": 34.938324,
      "lon": 137.1647542
    },
    {
      "name": "丸亀製麺岡崎",
      "address": "愛知県岡崎市法性寺町柳之内8-6",
      "lat": 34.9285412,
      "lon": 137.1419582
    },
    {
      "name": "丸亀製麺テラスウォーク一宮",
      "address": "愛知県一宮市両郷町1-2テラスウォーク一宮2F",
      "lat": 35.3104745,
      "lon": 136.8174618
    },
    {
      "name": "ラー麺ずんどう屋 一宮公園通店",
      "address": "愛知県一宮市公園通6-2",
      "lat": 35.2936889,
      "lon": 136.8037096
    },
    {
      "name": "丸亀製麺イオンモール木曽川",
      "address": "愛知県一宮市木曽川町黒田南八ツケ池25-1",
      "lat": 35.3497616,
      "lon": 136.7739635
    },
    {
      "name": "丸亀製麺一宮",
      "address": "愛知県一宮市末広2-4-18",
      "lat": 35.29719,
      "lon": 136.78701
    },
    {
      "name": "丸亀製麺尾張一宮駅前ビル",
      "address": "愛知県一宮市栄3-1-2尾張一宮駅前ビル(i-ビル)1F",
      "lat": 35.3027904,
      "lon": 136.7975326
    },
    {
      "name": "丸亀製麺瀬戸",
      "address": "愛知県瀬戸市見付町52-2",
      "lat": 35.218836,
      "lon": 137.0793579
    },
    {
      "name": "丸亀製麺春日井",
      "address": "愛知県春日井市味美白山町2-11-9",
      "lat": 35.2326573,
      "lon": 136.9340049
    },
    {
      "name": "丸亀製麺春日井西山町",
      "address": "愛知県春日井市西山町3-14-18",
      "lat": 35.2707857,
      "lon": 136.9770554
    },
    {
      "name": "丸亀製麺豊川",
      "address": "愛知県豊川市千歳通3-14-1",
      "lat": 34.815937,
      "lon": 137.3798218
    },
    {
      "name": "丸亀製麺1号線豊川",
      "address": "愛知県豊川市御油町万福寺36",
      "lat": 34.8428533,
      "lon": 137.3236037
    },
    {
      "name": "丸亀製麺津島",
      "address": "愛知県津島市埋田町1-20-2",
      "lat": 35.1759109,
      "lon": 136.7409363
    },
    {
      "name": "丸亀製麺イオンタウン刈谷",
      "address": "愛知県刈谷市東境町京和1イオンタウン刈谷1F",
      "lat": 35.0385111,
      "lon": 137.0289896
    },
    {
      "name": "丸亀製麺刈谷",
      "address": "愛知県刈谷市高津波町7-112",
      "lat": 35.0027504,
      "lon": 136.9919586
    },
    {
      "name": "ラー麺ずんどう屋 248豊田店",
      "address": "愛知県豊田市元宮町1-1-1",
      "lat": 35.0757611,
      "lon": 137.1605409
    },
    {
      "name": "丸亀製麺248号豊田",
      "address": "愛知県豊田市元宮町6-14",
      "lat": 35.0720081,
      "lon": 137.1602463
    },
    {
      "name": "丸亀製麺豊田",
      "address": "愛知県豊田市竜神町飛越94-1",
      "lat": 35.0531245,
      "lon": 137.1332553
    },
    {
      "name": "丸亀製麺安城",
      "address": "愛知県安城市新田町小山124-15",
      "lat": 34.9682235,
      "lon": 137.0875988
    },
    {
      "name": "丸亀製麺安城桜井",
      "address": "愛知県安城市桜井町新田13",
      "lat": 34.9188309,
      "lon": 137.0857544
    },
    {
      "name": "丸亀製麺西尾",
      "address": "愛知県西尾市永吉3-69",
      "lat": 34.8601761,
      "lon": 137.0484467
    },
    {
      "name": "丸亀製麺蒲郡",
      "address": "愛知県蒲郡市竹谷町西ノ浜35-1",
      "lat": 34.8254505,
      "lon": 137.2113177
    },
    {
      "name": "丸亀製麺常滑",
      "address": "愛知県常滑市虹の丘4丁目27番地",
      "lat": 34.901141,
      "lon": 136.8392792
    },
    {
      "name": "コナズ珈琲江南",
      "address": "愛知県江南市東野町神上157",
      "lat": 35.3336399,
      "lon": 136.8563781
    },
    {
      "name": "丸亀製麺江南",
      "address": "愛知県江南市赤童子町栄2",
      "lat": 35.332475,
      "lon": 136.8636509
    },
    {
      "name": "丸亀製麺41号小牧",
      "address": "愛知県小牧市多気中町93-1",
      "lat": 35.26437140000001,
      "lon": 136.9077069
    },
    {
      "name": "丸亀製麺小牧",
      "address": "愛知県小牧市大字小牧原新田自才前1427-2",
      "lat": 35.300845,
      "lon": 136.925182
    },
    {
      "name": "丸亀製麺稲沢",
      "address": "愛知県稲沢市下津下町西2-135-2",
      "lat": 35.2493256,
      "lon": 136.8274509
    },
    {
      "name": "丸亀製麺アピタ稲沢",
      "address": "愛知県稲沢市天池五反田町1アピタ稲沢2F",
      "lat": 35.2522591,
      "lon": 136.7708388
    },
    {
      "name": "丸亀製麺リーフウォーク稲沢",
      "address": "愛知県稲沢市長野7-1-2リーフウォーク稲沢2F",
      "lat": 35.2609609,
      "lon": 136.8190849
    },
    {
      "name": "丸亀製麺大府",
      "address": "愛知県大府市柊山町3-363",
      "lat": 35.0191978,
      "lon": 136.9526686
    },
    {
      "name": "丸亀製麺知多",
      "address": "愛知県知多市八幡字筒岡26-2",
      "lat": 34.9970114,
      "lon": 136.8822892
    },
    {
      "name": "丸亀製麺尾張旭",
      "address": "愛知県尾張旭市北本地ヶ原町1-56",
      "lat": 35.1965904,
      "lon": 137.0323944
    },
    {
      "name": "丸亀製麺尾張旭桜ヶ丘",
      "address": "愛知県尾張旭市桜ヶ丘町1-5",
      "lat": 35.2206056,
      "lon": 137.0119927
    },
    {
      "name": "丸亀製麺梅森台",
      "address": "愛知県日進市梅森台1-145",
      "lat": 35.1336316,
      "lon": 137.0151422
    },
    {
      "name": "丸亀製麺北名古屋",
      "address": "愛知県北名古屋市九之坪長堀120",
      "lat": 35.2342873,
      "lon": 136.8683929
    },
    {
      "name": "ラー麺ずんどう屋 弥富店",
      "address": "愛知県弥富市鍋平2丁目37-1",
      "lat": 35.1155571,
      "lon": 136.7429375
    },
    {
      "name": "丸亀製麺弥富",
      "address": "愛知県弥富市鯏浦町西前新田28-1",
      "lat": 35.1127182,
      "lon": 136.7313107
    },
    {
      "name": "丸亀製麺愛知みよし",
      "address": "愛知県みよし市三好町字西田37-9",
      "lat": 35.0806933,
      "lon": 137.0585679
    },
    {
      "name": "丸亀製麺イオンモール長久手",
      "address": "愛知県長久手市勝入塚501番地イオンモール長久手3F",
      "lat": 35.1734184,
      "lon": 137.0507109
    },
    {
      "name": "丸亀製麺長久手",
      "address": "愛知県長久手市片平2-503",
      "lat": 35.1605848,
      "lon": 137.0326524
    },
    {
      "name": "丸亀製麺エアポートウォーク名古屋",
      "address": "愛知県西春日井郡豊山町豊場林先1-8エアポートウォーク3F",
      "lat": 35.2459499,
      "lon": 136.9248981
    },
    {
      "name": "丸亀製麺大治",
      "address": "愛知県海部郡大治町大字西條字柳原83-6",
      "lat": 35.1841758,
      "lon": 136.8119921
    },
    {
      "name": "丸亀製麺蟹江",
      "address": "愛知県海部郡蟹江町宝2-614-3",
      "lat": 35.1254065,
      "lon": 136.7953868
    },
    {
      "name": "丸亀製麺東浦",
      "address": "愛知県知多郡東浦町大字緒川字下出口7-1",
      "lat": 34.9771612,
      "lon": 136.9685186
    },
    {
      "name": "丸亀製麺イオンモール東浦",
      "address": "愛知県知多郡東浦町大字緒川字旭13-2イオンモール東浦本館2F",
      "lat": 34.9776649,
      "lon": 136.9752602
    },
    {
      "name": "丸亀製麺武豊",
      "address": "愛知県知多郡武豊町字石川43-2",
      "lat": 34.8679381,
      "lon": 136.9195079
    },
    {
      "name": "ラー麺ずんどう屋 八熊通",
      "address": "愛知県名古屋市中川区八熊通6-53",
      "lat": 35.1407272,
      "lon": 136.879231
    },
    {
      "name": "丸亀製麺三重大学前",
      "address": "三重県津市江戸橋1-101",
      "lat": 34.7431248,
      "lon": 136.5174307
    },
    {
      "name": "丸亀製麺津",
      "address": "三重県津市藤方1583-3",
      "lat": 34.6882681,
      "lon": 136.5135223
    },
    {
      "name": "コナズ珈琲津藤方",
      "address": "三重県津市藤方1583-3",
      "lat": 34.6885727,
      "lon": 136.5135174
    },
    {
      "name": "丸亀製麺四日市",
      "address": "三重県四日市市城西町7-36",
      "lat": 34.963984,
      "lon": 136.6040341
    },
    {
      "name": "丸亀製麺イオンモール四日市北",
      "address": "三重県四日市市富州原町2-40イオンモール四日市北1F",
      "lat": 35.0078929,
      "lon": 136.6576769
    },
    {
      "name": "丸亀製麺伊勢",
      "address": "三重県伊勢市川端町267-1",
      "lat": 34.4926554,
      "lon": 136.6804217
    },
    {
      "name": "丸亀製麺松阪",
      "address": "三重県松阪市大黒田町227-16",
      "lat": 34.5669537,
      "lon": 136.5264143
    },
    {
      "name": "丸亀製麺桑名",
      "address": "三重県桑名市大字森忠1137-1",
      "lat": 35.0719578,
      "lon": 136.6214548
    },
    {
      "name": "丸亀製麺イオン桑名",
      "address": "三重県桑名市新西方1-22イオン桑名1F",
      "lat": 35.0723277,
      "lon": 136.662655
    },
    {
      "name": "丸亀製麺鈴鹿三日市",
      "address": "三重県鈴鹿市三日市町字南浦1466番5",
      "lat": 34.8749282,
      "lon": 136.5577378
    },
    {
      "name": "豚屋とん一イオンモール鈴鹿",
      "address": "三重県鈴鹿市庄野羽山4-1-2イオンモール鈴鹿2F",
      "lat": 34.8726569,
      "lon": 136.5316859
    },
    {
      "name": "ラー麺ずんどう屋 鈴鹿店",
      "address": "三重県鈴鹿市白子3丁目8-1",
      "lat": 34.8332467,
      "lon": 136.5850281
    },
    {
      "name": "丸亀製麺鈴鹿",
      "address": "三重県鈴鹿市白子4-31-16",
      "lat": 34.8308968,
      "lon": 136.5820568
    },
    {
      "name": "丸亀製麺名張",
      "address": "三重県名張市鴻之台1番町181",
      "lat": 34.6278763,
      "lon": 136.1102873
    },
    {
      "name": "丸亀製麺菰野",
      "address": "三重県三重郡菰野町大字宿野字神明田421-1",
      "lat": 35.0046747,
      "lon": 136.5277748
    },
    {
      "name": "丸亀製麺大津坂本",
      "address": "滋賀県大津市下阪本4-3-21",
      "lat": 35.0623692,
      "lon": 135.8792727
    },
    {
      "name": "丸亀製麺大津膳所",
      "address": "滋賀県大津市丸の内町11-6",
      "lat": 34.9963456,
      "lon": 135.8942319
    },
    {
      "name": "丸亀製麺大津瀬田",
      "address": "滋賀県大津市月輪2-190-1",
      "lat": 34.9899754,
      "lon": 135.935494
    },
    {
      "name": "コナズ珈琲大津",
      "address": "滋賀県大津市玉野浦3-1",
      "lat": 34.9839682,
      "lon": 135.9087449
    },
    {
      "name": "ラー麺ずんどう屋 大津膳所",
      "address": "滋賀県大津市秋葉台5番1号",
      "lat": 34.9929457,
      "lon": 135.8848584
    },
    {
      "name": "丸亀製麺彦根松原",
      "address": "滋賀県彦根市松原町1836",
      "lat": 35.27881989999999,
      "lon": 136.2603687
    },
    {
      "name": "丸亀製麺彦根",
      "address": "滋賀県彦根市西葛籠町字西浦346-1",
      "lat": 35.2261305,
      "lon": 136.2407105
    },
    {
      "name": "ラー麺ずんどう屋 彦根",
      "address": "滋賀県彦根市里根町23-7",
      "lat": 35.2697703,
      "lon": 136.2667688
    },
    {
      "name": "丸亀製麺長浜",
      "address": "滋賀県長浜市八幡中山町80",
      "lat": 35.3919967,
      "lon": 136.2820993
    },
    {
      "name": "ラー麺ずんどう屋 滋賀長浜店",
      "address": "滋賀県長浜市八幡町中山町93",
      "lat": 35.3790655,
      "lon": 136.2697947
    },
    {
      "name": "丸亀製麺近江八幡",
      "address": "滋賀県近江八幡市音羽町13-2",
      "lat": 35.1344407,
      "lon": 136.1033144
    },
    {
      "name": "ラー麺ずんどう屋 近江八幡",
      "address": "滋賀県近江八幡市鷹飼町字下司1374番",
      "lat": 35.1322828,
      "lon": 136.1063064
    },
    {
      "name": "丸亀製麺イオンモール草津",
      "address": "滋賀県草津市新浜町300イオンモール草津3F",
      "lat": 34.997868,
      "lon": 135.91321
    },
    {
      "name": "豚屋とん一イオンモール草津",
      "address": "滋賀県草津市新浜町300イオンモール草津3F",
      "lat": 34.99844880000001,
      "lon": 135.9126669
    },
    {
      "name": "ラー麺ずんどう屋 草津",
      "address": "滋賀県草津市野村6-3-17",
      "lat": 35.0276059,
      "lon": 135.9527003
    },
    {
      "name": "丸亀製麺水口",
      "address": "滋賀県甲賀市水口町北泉1-5",
      "lat": 34.983003,
      "lon": 136.1448037
    },
    {
      "name": "丸亀製麺野洲",
      "address": "滋賀県野洲市三上718",
      "lat": 35.0517386,
      "lon": 136.0284336
    },
    {
      "name": "ラー麺ずんどう屋 野洲",
      "address": "滋賀県野洲市妙光寺290",
      "lat": 35.059188,
      "lon": 136.0286891
    },
    {
      "name": "丸亀製麺安曇川",
      "address": "滋賀県高島市安曇川町西万木223-3",
      "lat": 35.3258152,
      "lon": 136.0239591
    },
    {
      "name": "丸亀製麺五個荘",
      "address": "滋賀県東近江市五個荘五位田町33-2",
      "lat": 35.1583119,
      "lon": 136.1951689
    },
    {
      "name": "丸亀製麺八日市",
      "address": "滋賀県東近江市札の辻2-13-36",
      "lat": 35.1008415,
      "lon": 136.2199402
    },
    {
      "name": "ラー麺ずんどう屋 四条烏丸",
      "address": "京都府京都市中京区西魚屋町619",
      "lat": 35.0048448,
      "lon": 135.7615948
    },
    {
      "name": "丸亀製麺洛北阪急スクエア",
      "address": "京都府京都市左京区高野西開町36洛北阪急スクエア",
      "lat": 35.0401422,
      "lon": 135.7796846
    },
    {
      "name": "丸亀製麺イオンモール北大路",
      "address": "京都府京都市北区小山北上総町49-1イオンモール北大路1F",
      "lat": 35.044972,
      "lon": 135.7583489
    },
    {
      "name": "ラー麺ずんどう屋 京都三条",
      "address": "京都府京都市中京区(木屋町通三条下る東入)石屋町121",
      "lat": 35.008266,
      "lon": 135.770876
    },
    {
      "name": "丸亀製麺京都市役所前",
      "address": "京都府京都市中京区下本能寺前町522-19",
      "lat": 35.0105858,
      "lon": 135.7683168
    },
    {
      "name": "天丼まきの京都寺町",
      "address": "京都府京都市中京区寺町通下る中筋町481-3",
      "lat": 35.00700339999999,
      "lon": 135.7669757
    },
    {
      "name": "丸亀製麺イオンモール京都桂川",
      "address": "京都府京都市南区久世高田町376-1イオンモール京都桂川3F",
      "lat": 34.9634938,
      "lon": 135.7070538
    },
    {
      "name": "豚屋とん一イオンモール京都桂川",
      "address": "京都府京都市南区久世高田町376-1イオンモール京都桂川3F",
      "lat": 34.96379,
      "lon": 135.7071775
    },
    {
      "name": "丸亀製麺吉祥院",
      "address": "京都府京都市南区吉祥院池ノ内町24-1-3",
      "lat": 34.9731575,
      "lon": 135.726885
    },
    {
      "name": "ラー麺ずんどう屋 京都豊田",
      "address": "京都府京都市南区西九条豊田町46-1",
      "lat": 34.9757982,
      "lon": 135.7458263
    },
    {
      "name": "丸亀製麺イオンモールKYOTO",
      "address": "京都府京都市南区西九条鳥居口町1イオンモールKYOTO4F",
      "lat": 34.982747,
      "lon": 135.7545979
    },
    {
      "name": "丸亀製麺京都ファミリー",
      "address": "京都府京都市右京区山ノ内池尻町1-1京都ファミリー3F",
      "lat": 35.0046127,
      "lon": 135.7208649
    },
    {
      "name": "丸亀製麺イオンモール京都五条",
      "address": "京都府京都市右京区西院追分町25-1イオンモール京都五条3F",
      "lat": 34.997669,
      "lon": 135.7275111
    },
    {
      "name": "丸亀製麺京都伏見",
      "address": "京都府京都市伏見区下鳥羽平塚町156",
      "lat": 34.9380846,
      "lon": 135.7453695
    },
    {
      "name": "丸亀製麺京都東インター",
      "address": "京都府京都市山科区小山中ノ川町13-4",
      "lat": 34.9843794,
      "lon": 135.8277366
    },
    {
      "name": "ラー麺ずんどう屋 京都洛西",
      "address": "京都府京都市西京区大枝沓掛町13-66",
      "lat": 34.9756191,
      "lon": 135.6657632
    },
    {
      "name": "丸亀製麺京都洛西",
      "address": "京都府京都市西京区樫原秤谷町49-1",
      "lat": 34.9710418,
      "lon": 135.6819482
    },
    {
      "name": "丸亀製麺福知山",
      "address": "京都府福知山市字篠尾小字殿ヶ市772-1",
      "lat": 35.2986611,
      "lon": 135.1095729
    },
    {
      "name": "丸亀製麺綾部",
      "address": "京都府綾部市大島町畠田13-4",
      "lat": 35.3046461,
      "lon": 135.2225928
    },
    {
      "name": "丸亀製麺宇治",
      "address": "京都府宇治市小倉町春日森13-1",
      "lat": 34.9011807,
      "lon": 135.7836578
    },
    {
      "name": "丸亀製麺亀岡",
      "address": "京都府亀岡市千代川町小林下戸30-3",
      "lat": 35.0384754,
      "lon": 135.5479231
    },
    {
      "name": "丸亀製麺城陽",
      "address": "京都府城陽市寺田高田35",
      "lat": 34.8535665,
      "lon": 135.77956
    },
    {
      "name": "ラー麺ずんどう屋 京都八幡",
      "address": "京都府八幡市八幡水珀13-1",
      "lat": 34.856644,
      "lon": 135.709552
    },
    {
      "name": "丸亀製麺松井山手",
      "address": "京都府八幡市欽明台西24-10",
      "lat": 34.83719540000001,
      "lon": 135.7167851
    },
    {
      "name": "丸亀製麺京丹後",
      "address": "京都府京丹後市大宮町河辺3239-3",
      "lat": 35.600751,
      "lon": 135.086054
    },
    {
      "name": "丸亀製麺イオンモール高の原",
      "address": "京都府木津川市相楽台1-1-1イオンモール高の原4F",
      "lat": 34.7253471,
      "lon": 135.7905378
    },
    {
      "name": "ラー麺ずんどう屋 京都久御山",
      "address": "京都府久世郡久御山町森川端41-1",
      "lat": 34.8964639,
      "lon": 135.743663
    },
    {
      "name": "丸亀製麺ビエラタウンけいはんな",
      "address": "京都府相楽郡精華町光台1-4-1ビエラタウンけいはんな",
      "lat": 34.7450913,
      "lon": 135.7676767
    },
    {
      "name": "丸亀製麺野田阪神",
      "address": "大阪府大阪市福島区海老江1-1-17野田アプラ1F",
      "lat": 34.6944174,
      "lon": 135.4748291
    },
    {
      "name": "天ぷら定食まきのイオンモール大阪ドームシティ",
      "address": "大阪府大阪市西区千代崎3-13-1イオンモール大阪ドームシティ4F",
      "lat": 34.6703716,
      "lon": 135.4780686
    },
    {
      "name": "丸亀製麺信濃橋",
      "address": "大阪府大阪市西区靭本町1-11-7信濃橋三井ビル1F",
      "lat": 34.6841609,
      "lon": 135.4964854
    },
    {
      "name": "丸亀製麺上本町",
      "address": "大阪府大阪市天王寺区上本町6-6-23上本町サウスビル1F",
      "lat": 34.664247,
      "lon": 135.5190506
    },
    {
      "name": "丸亀製麺なんば",
      "address": "大阪府大阪市浪速区難波中1-16-8國樹ビル1F",
      "lat": 34.6630172,
      "lon": 135.4999111
    },
    {
      "name": "丸亀製麺生野巽",
      "address": "大阪府大阪市生野区巽東1-1-5",
      "lat": 34.6531325,
      "lon": 135.5555837
    },
    {
      "name": "丸亀製麺深江橋",
      "address": "大阪府大阪市城東区永田3-14-6",
      "lat": 34.6821404,
      "lon": 135.5581512
    },
    {
      "name": "丸亀製麺あべのキューズモール",
      "address": "大阪府大阪市阿倍野区阿倍野筋1-6-1あべのキューズモール3F",
      "lat": 34.6450738,
      "lon": 135.5114821
    },
    {
      "name": "豚屋とん一あべのキューズモール",
      "address": "大阪府大阪市阿倍野区阿倍野筋1-6-1あべのキューズモール3F",
      "lat": 34.6450456,
      "lon": 135.5117274
    },
    {
      "name": "立呑み晩杯屋 天王寺",
      "address": "大阪府大阪市阿倍野区阿倍野筋1-6-11階",
      "lat": 34.6459261,
      "lon": 135.5121601
    },
    {
      "name": "ラー麺ずんどう屋 東住吉今川",
      "address": "大阪府大阪市東住吉区今川4-5-4",
      "lat": 34.6298129,
      "lon": 135.5379968
    },
    {
      "name": "丸亀製麺東住吉",
      "address": "大阪府大阪市東住吉区住道矢田5-6-5",
      "lat": 34.6090355,
      "lon": 135.5411987
    },
    {
      "name": "肉のヤマ牛十三",
      "address": "大阪府大阪市淀川区十三本町1-2-3佐瀬十三ビル1F2F",
      "lat": 34.719796,
      "lon": 135.4820808
    },
    {
      "name": "晩杯屋十三店",
      "address": "大阪府大阪市淀川区十三本町１丁目２−４",
      "lat": 34.7198993,
      "lon": 135.4820325
    },
    {
      "name": "とりどーる鶴見緑地",
      "address": "大阪府大阪市鶴見区焼野3-1-3",
      "lat": 34.7185885,
      "lon": 135.5826786
    },
    {
      "name": "丸亀製麺イオンモール鶴見緑地",
      "address": "大阪府大阪市鶴見区鶴見4-17-1イオンモール鶴見緑地3F",
      "lat": 34.7035932,
      "lon": 135.5658722
    },
    {
      "name": "丸亀製麺住之江",
      "address": "大阪府大阪市住之江区北加賀屋3-1-63",
      "lat": 34.6258787,
      "lon": 135.4789137
    },
    {
      "name": "ラー麺ずんどう屋 住之江",
      "address": "大阪府大阪市住之江区粉浜西3-3-2",
      "lat": 34.6142565,
      "lon": 135.4871575
    },
    {
      "name": "丸亀製麺イオン喜連瓜破駅前",
      "address": "大阪府大阪市平野区瓜破2-1-13イオン喜連瓜破駅前3F",
      "lat": 34.608237,
      "lon": 135.5519567
    },
    {
      "name": "丸亀製麺長吉長原",
      "address": "大阪府大阪市平野区長吉長原東3-1-62",
      "lat": 34.600975,
      "lon": 135.5744324
    },
    {
      "name": "ラー麺ずんどう屋 梅田堂山",
      "address": "大阪府大阪市北区堂山町17－5",
      "lat": 34.7038939,
      "lon": 135.5021103
    },
    {
      "name": "ラー麺ずんどう屋 梅田東通り",
      "address": "大阪府大阪市北区堂山町2-10K1ビル1F",
      "lat": 34.7028093,
      "lon": 135.503498
    },
    {
      "name": "まきの天神橋四丁目",
      "address": "大阪府大阪市北区天神橋4-10-18河野ビル1F",
      "lat": 34.7060686,
      "lon": 135.5112619
    },
    {
      "name": "ラー麺ずんどう屋 天神橋4丁目",
      "address": "大阪府大阪市北区天神橋4-8-13",
      "lat": 34.7050661,
      "lon": 135.5110514
    },
    {
      "name": "丸亀製麺大阪駅前第4ビル",
      "address": "大阪府大阪市北区梅田1-11-4大阪駅前第4ビルB1F",
      "lat": 34.6997211,
      "lon": 135.498675
    },
    {
      "name": "立呑み晩杯屋 大阪駅前第三ビル",
      "address": "大阪府大阪市北区梅田1丁目3番地B1‐55",
      "lat": 34.69859599999999,
      "lon": 135.4992929
    },
    {
      "name": "立呑み晩杯屋 大阪駅前第四ビル",
      "address": "大阪府大阪市北区梅田１－１１－４",
      "lat": 34.6996336,
      "lon": 135.4993572
    },
    {
      "name": "天ぷらまきの梅田",
      "address": "大阪府大阪市北区芝田1-1-3阪急三番街南館2F",
      "lat": 34.704169,
      "lon": 135.4983578
    },
    {
      "name": "丸亀製麺梅田",
      "address": "大阪府大阪市北区角田町6-3北大阪角田町ビル1F",
      "lat": 34.7035566,
      "lon": 135.5007899
    },
    {
      "name": "ラー麺ずんどう屋 宗右衛門町",
      "address": "大阪府大阪市中央区宗右衛門町7番16号",
      "lat": 34.66930079999999,
      "lon": 135.5029317
    },
    {
      "name": "ラー麺ずんどう屋 心斎橋",
      "address": "大阪府大阪市中央区心斎橋筋1-5-7セーナビル1F(周防町通り)",
      "lat": 34.6720725,
      "lon": 135.5019898
    },
    {
      "name": "丸亀製麺心斎橋OPA",
      "address": "大阪府大阪市中央区西心斎橋1-4-3心斎橋オーパB2F",
      "lat": 34.6733396,
      "lon": 135.4999999
    },
    {
      "name": "ラー麺ずんどう屋 難波えびす橋",
      "address": "大阪府大阪市中央区難波1-6-8　難波門三ビル1F",
      "lat": 34.6679519,
      "lon": 135.5017593
    },
    {
      "name": "まきの難波千日前",
      "address": "大阪府大阪市中央区難波3-3-4難波日大ビル1F",
      "lat": 34.6664404,
      "lon": 135.5019118
    },
    {
      "name": "コナズ珈琲堺",
      "address": "大阪府堺市中区八田西町1-2-2",
      "lat": 34.5205051,
      "lon": 135.4770956
    },
    {
      "name": "丸亀製麺堺深井",
      "address": "大阪府堺市中区深井北町3499",
      "lat": 34.5382042,
      "lon": 135.4921265
    },
    {
      "name": "丸亀製麺アリオ鳳",
      "address": "大阪府堺市西区鳳南町3丁199-12アリオ鳳 1Fフードコート",
      "lat": 34.5247215,
      "lon": 135.4592916
    },
    {
      "name": "豚屋とん一堺東駅前",
      "address": "大阪府堺市堺区中瓦町2-3-23堀ビル1F",
      "lat": 34.5745397,
      "lon": 135.4837619
    },
    {
      "name": "ラー麺ずんどう屋 堺山本町",
      "address": "大阪府堺市堺区山本町3-80-3",
      "lat": 34.5883649,
      "lon": 135.4719973
    },
    {
      "name": "丸亀製麺コーナン堺",
      "address": "大阪府堺市堺区石津北町90-3コーナン堺1F",
      "lat": 34.5562756,
      "lon": 135.4684934
    },
    {
      "name": "丸亀製麺堺",
      "address": "大阪府堺市堺区神南辺町3-107-7",
      "lat": 34.5868143,
      "lon": 135.4706991
    },
    {
      "name": "ラー麺ずんどう屋 堺八下町",
      "address": "大阪府堺市東区八下町3-1",
      "lat": 34.5583172,
      "lon": 135.5446336
    },
    {
      "name": "天ぷらまきの堺鳳",
      "address": "大阪府堺市西区上434-2",
      "lat": 34.5255707,
      "lon": 135.462258
    },
    {
      "name": "丸亀製麺堺浜寺",
      "address": "大阪府堺市西区浜寺石津町西5-3-22",
      "lat": 34.55438,
      "lon": 135.4493341
    },
    {
      "name": "丸亀製麺堺鳳",
      "address": "大阪府堺市西区鳳西町1-77-7",
      "lat": 34.5291339,
      "lon": 135.4524801
    },
    {
      "name": "ラー麺ずんどう屋 堺鳳西",
      "address": "大阪府堺市西区鳳西町3-3-3",
      "lat": 34.5312545,
      "lon": 135.4521625
    },
    {
      "name": "丸亀製麺堺泉北",
      "address": "大阪府堺市南区豊田1061-1",
      "lat": 34.4922879,
      "lon": 135.4954059
    },
    {
      "name": "丸亀製麺コーナン中百舌鳥",
      "address": "大阪府堺市北区中百舌鳥町3丁428-2",
      "lat": 34.55350900000001,
      "lon": 135.5111617
    },
    {
      "name": "丸亀製麺イオンモール堺北花田",
      "address": "大阪府堺市北区東浅香山町4丁1-12イオンモール堺北花田3F",
      "lat": 34.5843931,
      "lon": 135.5150524
    },
    {
      "name": "丸亀製麺堺美原",
      "address": "大阪府堺市美原区黒山386-1",
      "lat": 34.540467,
      "lon": 135.5586554
    },
    {
      "name": "ラー麺ずんどう屋 岸和田春木",
      "address": "大阪府岸和田市八幡町6-1",
      "lat": 34.4806324,
      "lon": 135.3910586
    },
    {
      "name": "ラー麺ずんどう屋 岸和田店",
      "address": "大阪府岸和田市東大路町11-1",
      "lat": 34.4701159,
      "lon": 135.4182246
    },
    {
      "name": "丸亀製麺豊中小曽根",
      "address": "大阪府豊中市小曽根4-3-8",
      "lat": 34.75649569999999,
      "lon": 135.4837899
    },
    {
      "name": "ラー麺ずんどう屋 豊中服部店",
      "address": "大阪府豊中市服部寿町3丁目15-3",
      "lat": 34.7580778,
      "lon": 135.4701292
    },
    {
      "name": "コナズ珈琲池田",
      "address": "大阪府池田市古江町113-1",
      "lat": 34.8472333,
      "lon": 135.421531
    },
    {
      "name": "丸亀製麺池田",
      "address": "大阪府池田市古江町119-1",
      "lat": 34.8469585,
      "lon": 135.4217258
    },
    {
      "name": "丸亀製麺泉大津",
      "address": "大阪府泉大津市春日町3-28",
      "lat": 34.5062431,
      "lon": 135.4096864
    },
    {
      "name": "丸亀製麺高槻",
      "address": "大阪府高槻市大塚町5-1-6",
      "lat": 34.8257872,
      "lon": 135.6315549
    },
    {
      "name": "ラー麺ずんどう屋 高槻梶原",
      "address": "大阪府高槻市梶原4-4-1",
      "lat": 34.8650515,
      "lon": 135.6565532
    },
    {
      "name": "ラー麺ずんどう屋 貝塚",
      "address": "大阪府貝塚市久保1丁目1-40",
      "lat": 34.44874920000001,
      "lon": 135.3733768
    },
    {
      "name": "丸亀製麺貝塚",
      "address": "大阪府貝塚市小瀬342-2",
      "lat": 34.4480468,
      "lon": 135.3711739
    },
    {
      "name": "丸亀製麺守口大日",
      "address": "大阪府守口市佐太中町3-2-22",
      "lat": 34.7548162,
      "lon": 135.5847107
    },
    {
      "name": "ラー麺ずんどう屋 守口南寺方",
      "address": "大阪府守口市南寺方東通2-1-25",
      "lat": 34.7210588,
      "lon": 135.571948
    },
    {
      "name": "丸亀製麺イオンモール大日",
      "address": "大阪府守口市大日東町1-18イオンモール大日2F",
      "lat": 34.749439,
      "lon": 135.580529
    },
    {
      "name": "豚屋とん一イオンモール大日",
      "address": "大阪府守口市大日東町1-18イオンモール大日2F",
      "lat": 34.7495607,
      "lon": 135.5802072
    },
    {
      "name": "丸亀製麺枚方",
      "address": "大阪府枚方市三栗1-2-5",
      "lat": 34.8360383,
      "lon": 135.6569794
    },
    {
      "name": "丸亀製麺くずはモール",
      "address": "大阪府枚方市楠葉花園町15-1",
      "lat": 34.8617173,
      "lon": 135.6781464
    },
    {
      "name": "ラー麺ずんどう屋 茨木下穂積",
      "address": "大阪府茨木市下穂積2丁目10-6",
      "lat": 34.8086054,
      "lon": 135.552498
    },
    {
      "name": "ラー麺ずんどう屋 茨木島一",
      "address": "大阪府茨木市島1-12-17",
      "lat": 34.7912,
      "lon": 135.5782998
    },
    {
      "name": "丸亀製麺茨木島",
      "address": "大阪府茨木市島1-12-24",
      "lat": 34.7910164,
      "lon": 135.5780764
    },
    {
      "name": "丸亀製麺イオンモール茨木",
      "address": "大阪府茨木市松ヶ本町8-30イオンモール茨木1F",
      "lat": 34.8114324,
      "lon": 135.5588607
    },
    {
      "name": "豚屋とん一イオンモール茨木",
      "address": "大阪府茨木市松ヶ本町8-30イオンモール茨木1F",
      "lat": 34.8117127,
      "lon": 135.5589307
    },
    {
      "name": "丸亀製麺アリオ八尾",
      "address": "大阪府八尾市光町2-3アリオ八尾1F",
      "lat": 34.6321467,
      "lon": 135.6058403
    },
    {
      "name": "丸亀製麺八尾",
      "address": "大阪府八尾市天王寺屋2-68",
      "lat": 34.6033682,
      "lon": 135.6130597
    },
    {
      "name": "ラー麺ずんどう屋 八尾志紀",
      "address": "大阪府八尾市志紀町1-1",
      "lat": 34.601655,
      "lon": 135.614015
    },
    {
      "name": "丸亀製麺八尾久宝寺",
      "address": "大阪府八尾市東久宝寺2-69",
      "lat": 34.6282105,
      "lon": 135.5934588
    },
    {
      "name": "ラー麺ずんどう屋 八尾西久宝寺",
      "address": "大阪府八尾市西久宝寺751-1",
      "lat": 34.6323463,
      "lon": 135.5832059
    },
    {
      "name": "丸亀製麺泉佐野",
      "address": "大阪府泉佐野市羽倉崎1-6-10",
      "lat": 34.4023705,
      "lon": 135.3005524
    },
    {
      "name": "ラー麺ずんどう屋 富田林",
      "address": "大阪府富田林市中野町西1-425",
      "lat": 34.5120215,
      "lon": 135.6035587
    },
    {
      "name": "丸亀製麺富田林",
      "address": "大阪府富田林市向陽台2-1-6",
      "lat": 34.5010376,
      "lon": 135.5818481
    },
    {
      "name": "コナズ珈琲寝屋川",
      "address": "大阪府寝屋川市太秦桜が丘26-18",
      "lat": 34.7678343,
      "lon": 135.6401875
    },
    {
      "name": "とりどーる寝屋川",
      "address": "大阪府寝屋川市明徳1-14-9",
      "lat": 34.7729254,
      "lon": 135.6517435
    },
    {
      "name": "丸亀製麺河内長野",
      "address": "大阪府河内長野市寿町2-15",
      "lat": 34.449774,
      "lon": 135.5576152
    },
    {
      "name": "丸亀製麺松原",
      "address": "大阪府松原市三宅西3-270-1",
      "lat": 34.586192,
      "lon": 135.5501305
    },
    {
      "name": "ラー麺ずんどう屋 松原天美我堂",
      "address": "大阪府松原市天美我堂5-6-30",
      "lat": 34.584371,
      "lon": 135.5278598
    },
    {
      "name": "丸亀製麺大東",
      "address": "大阪府大東市栄和町14-17",
      "lat": 34.7027607,
      "lon": 135.6267871
    },
    {
      "name": "丸亀製麺ららぽーと和泉",
      "address": "大阪府和泉市あゆみ野4-4-7",
      "lat": 34.4370619,
      "lon": 135.4488385
    },
    {
      "name": "ラー麺ずんどう屋 和泉富秋",
      "address": "大阪府和泉市富秋町1-15-25",
      "lat": 34.5056974,
      "lon": 135.4317421
    },
    {
      "name": "丸亀製麺和泉中央",
      "address": "大阪府和泉市観音寺町220-1",
      "lat": 34.4736243,
      "lon": 135.4390806
    },
    {
      "name": "丸亀製麺箕面",
      "address": "大阪府箕面市今宮3-2-9",
      "lat": 34.83440210000001,
      "lon": 135.5000853
    },
    {
      "name": "丸亀製麺羽曳野",
      "address": "大阪府羽曳野市尺度141-1",
      "lat": 34.5315046,
      "lon": 135.6051429
    },
    {
      "name": "丸亀製麺門真",
      "address": "大阪府門真市下島町24-11",
      "lat": 34.7384292,
      "lon": 135.6107688
    },
    {
      "name": "ラー麺ずんどう屋 摂津西",
      "address": "大阪府摂津市西一津屋3-23",
      "lat": 34.7645868,
      "lon": 135.5606629
    },
    {
      "name": "コナズ珈琲藤井寺",
      "address": "大阪府藤井寺市恵美坂2-10-17",
      "lat": 34.5743215,
      "lon": 135.5875699
    },
    {
      "name": "ラー麺ずんどう屋 藤井寺",
      "address": "大阪府藤井寺市沢田1-29-6",
      "lat": 34.5733083,
      "lon": 135.6056214
    },
    {
      "name": "とりどーる東大阪中野",
      "address": "大阪府東大阪市中野2-2-38",
      "lat": 34.6818638,
      "lon": 135.6122554
    },
    {
      "name": "丸亀製麺東大阪",
      "address": "大阪府東大阪市御厨東2-14-13",
      "lat": 34.6703284,
      "lon": 135.5941075
    },
    {
      "name": "ラー麺ずんどう屋 東鴻池店",
      "address": "大阪府東大阪市東鴻池2-4-25",
      "lat": 34.6900798,
      "lon": 135.6165994
    },
    {
      "name": "丸亀製麺若江東",
      "address": "大阪府東大阪市若江東町4-4-11",
      "lat": 34.6549566,
      "lon": 135.6136318
    },
    {
      "name": "長田本庄軒イオンモールりんくう泉南",
      "address": "大阪府泉南市りんくう南浜3-12イオンモールりんくう泉南2F",
      "lat": 34.3813309,
      "lon": 135.2679997
    },
    {
      "name": "豚屋とん一イオンモール四條畷",
      "address": "大阪府四條畷市砂4-3-2イオンモール四條畷3F",
      "lat": 34.7459818,
      "lon": 135.6293766
    },
    {
      "name": "丸亀製麺大阪狭山",
      "address": "大阪府大阪狭山市池之原1-829-1",
      "lat": 34.5091798,
      "lon": 135.543144
    },
    {
      "name": "丸亀製麺阪南",
      "address": "大阪府阪南市尾崎町510-1",
      "lat": 34.3570702,
      "lon": 135.2485873
    },
    {
      "name": "丸亀製麺熊取",
      "address": "大阪府泉南郡熊取町紺屋2-27-11",
      "lat": 34.4053561,
      "lon": 135.3468314
    },
    {
      "name": "丸亀製麺西神中央プレンティ",
      "address": "兵庫県神戸市西区糀台5丁目2-3",
      "lat": 34.7195975,
      "lon": 135.0195088
    },
    {
      "name": "丸亀製麺御影塚町",
      "address": "兵庫県神戸市東灘区御影塚町1-5-12",
      "lat": 34.7094536,
      "lon": 135.2479248
    },
    {
      "name": "丸亀製麺イオンモール神戸南",
      "address": "兵庫県神戸市兵庫区中之島2-1-1イオンモール神戸南3F",
      "lat": 34.6650796,
      "lon": 135.1733795
    },
    {
      "name": "豚屋とん一イオンモール神戸南",
      "address": "兵庫県神戸市兵庫区中之島2-1-1イオンモール神戸南3F",
      "lat": 34.6657191,
      "lon": 135.17459
    },
    {
      "name": "丸亀製麺夢野",
      "address": "兵庫県神戸市兵庫区菊水町10-37-11",
      "lat": 34.6798445,
      "lon": 135.1526397
    },
    {
      "name": "ラー麺ずんどう屋 神戸須磨",
      "address": "兵庫県神戸市須磨区大田町6-10-2",
      "lat": 34.6550481,
      "lon": 135.1327817
    },
    {
      "name": "丸亀製麺名谷東",
      "address": "兵庫県神戸市垂水区下畑町字口唐戸334-1",
      "lat": 34.6488847,
      "lon": 135.0904018
    },
    {
      "name": "コナズ珈琲垂水",
      "address": "兵庫県神戸市垂水区名谷町2035-1",
      "lat": 34.6659405,
      "lon": 135.0730593
    },
    {
      "name": "とりどーる小束山",
      "address": "兵庫県神戸市垂水区小束山本町3-2-35",
      "lat": 34.6639974,
      "lon": 135.0623311
    },
    {
      "name": "丸亀製麺垂水",
      "address": "兵庫県神戸市垂水区清水が丘3-5-7",
      "lat": 34.6509781,
      "lon": 135.0371552
    },
    {
      "name": "ラー麺ずんどう屋 垂水ジェームス山",
      "address": "兵庫県神戸市垂水区青山台8丁目762-1041",
      "lat": 34.6470955,
      "lon": 135.0777436
    },
    {
      "name": "丸亀製麺イオンモール神戸北",
      "address": "兵庫県神戸市北区上津台8-1-1イオンモール神戸北3F",
      "lat": 34.8610605,
      "lon": 135.1943458
    },
    {
      "name": "豚屋とん一イオンモール神戸北",
      "address": "兵庫県神戸市北区上津台8-1-1イオンモール神戸北3F",
      "lat": 34.8611935,
      "lon": 135.1945075
    },
    {
      "name": "丸亀製麺鈴蘭台",
      "address": "兵庫県神戸市北区山田町小部字法殿ノ下29-1",
      "lat": 34.7290116,
      "lon": 135.1603245
    },
    {
      "name": "丸亀製麺有野",
      "address": "兵庫県神戸市北区有野中町3-27-11",
      "lat": 34.8297108,
      "lon": 135.2259405
    },
    {
      "name": "丸亀製麺さんプラザ",
      "address": "兵庫県神戸市中央区三宮町1-8-1さんプラザB1F",
      "lat": 34.6919488,
      "lon": 135.1934493
    },
    {
      "name": "長田本庄軒三宮センタープラザ",
      "address": "兵庫県神戸市中央区三宮町1-9-1三宮センタープラザB1F",
      "lat": 34.691552,
      "lon": 135.1920815
    },
    {
      "name": "まきのセンタープラザ",
      "address": "兵庫県神戸市中央区三宮町1-9-1三宮センタープラザB1F",
      "lat": 34.6916283,
      "lon": 135.1922665
    },
    {
      "name": "ラー麺ずんどう屋 三宮センタープラザ",
      "address": "兵庫県神戸市中央区三宮町1-9-1 三宮センタープラザB1F",
      "lat": 34.6917014,
      "lon": 135.1924586
    },
    {
      "name": "ラー麺ずんどう屋 神戸三宮",
      "address": "兵庫県神戸市中央区中山手通1-2-1KENWA ビル 1F",
      "lat": 34.6939363,
      "lon": 135.192172
    },
    {
      "name": "丸亀製麺神戸ハーバーランドumie",
      "address": "兵庫県神戸市中央区東川崎町1-7-5神戸ハーバーランドumie NORTHMALL4F",
      "lat": 34.6802036,
      "lon": 135.1824871
    },
    {
      "name": "長田本庄軒神戸ハーバーランドumie",
      "address": "兵庫県神戸市中央区東川崎町1-7-5神戸ハーバーランドumie NORTHMALL4F",
      "lat": 34.6800268,
      "lon": 135.1825046
    },
    {
      "name": "肉のヤマ牛神戸ハーバーランドumie",
      "address": "兵庫県神戸市中央区東川崎町1-7-5神戸ハーバーランドumie NORTHMALL4F",
      "lat": 34.6800268,
      "lon": 135.1825046
    },
    {
      "name": "丸亀製麺三宮",
      "address": "兵庫県神戸市中央区磯上通2-1-9",
      "lat": 34.6930144,
      "lon": 135.2022436
    },
    {
      "name": "丸亀製麺三宮磯上通",
      "address": "兵庫県神戸市中央区磯上通7-1-2北野ビル1F",
      "lat": 34.6922741,
      "lon": 135.1974615
    },
    {
      "name": "丸亀製麺西神戸",
      "address": "兵庫県神戸市西区持子1-201",
      "lat": 34.6680559,
      "lon": 134.9843614
    },
    {
      "name": "ラー麺ずんどう屋 神戸西",
      "address": "兵庫県神戸市西区枝吉5-163-1玉津インター南",
      "lat": 34.66651890000001,
      "lon": 134.979383
    },
    {
      "name": "まきの西神戸",
      "address": "兵庫県神戸市西区枝吉5-5",
      "lat": 34.6683437,
      "lon": 134.9789369
    },
    {
      "name": "天ぷら定食まきの西神中央プレンティ",
      "address": "兵庫県神戸市西区糀台5-2-3二番館2階",
      "lat": 34.7189742,
      "lon": 135.0188718
    },
    {
      "name": "ラー麺ずんどう屋 姫路南",
      "address": "兵庫県姫路市飾磨区下野田1-179",
      "lat": 34.8037735,
      "lon": 134.680532
    },
    {
      "name": "長田本庄軒イオンモール姫路大津",
      "address": "兵庫県姫路市大津区大津町2-5イオンモール姫路大津2F",
      "lat": 34.8068695,
      "lon": 134.6066471
    },
    {
      "name": "丸亀製麺イオンモール姫路大津",
      "address": "兵庫県姫路市大津区大津町2-5イオンモール姫路大津2F",
      "lat": 34.8068694,
      "lon": 134.6067282
    },
    {
      "name": "ラー麺ずんどう屋 姫路天神",
      "address": "兵庫県姫路市大津区天神町2-164-3",
      "lat": 34.792915,
      "lon": 134.614769
    },
    {
      "name": "丸亀製麺飾西",
      "address": "兵庫県姫路市実法寺90",
      "lat": 34.8651541,
      "lon": 134.6343726
    },
    {
      "name": "コナズ珈琲姫路",
      "address": "兵庫県姫路市岩端町147-1",
      "lat": 34.8438929,
      "lon": 134.6795566
    },
    {
      "name": "まきの姫路飾磨",
      "address": "兵庫県姫路市飾磨区恵美酒字下長284",
      "lat": 34.8062185,
      "lon": 134.672978
    },
    {
      "name": "丸亀製麺姫路中地",
      "address": "兵庫県姫路市飾磨区構4-122",
      "lat": 34.8111358,
      "lon": 134.6638791
    },
    {
      "name": "ラー麺ずんどう屋 姫路安室",
      "address": "兵庫県姫路市田寺東2-25-10",
      "lat": 34.8574635,
      "lon": 134.6726784
    },
    {
      "name": "ラー麺ずんどう屋 総本店",
      "address": "兵庫県姫路市船丘町298-2日新ビル1F",
      "lat": 34.835601,
      "lon": 134.680165
    },
    {
      "name": "丸亀製麺姫路花田",
      "address": "兵庫県姫路市花田町小川50-1",
      "lat": 34.8383984,
      "lon": 134.7274949
    },
    {
      "name": "とりどーる姫路花北",
      "address": "兵庫県姫路市西中島374-1",
      "lat": 34.8538699,
      "lon": 134.7121668
    },
    {
      "name": "丸亀製麺姫路SA",
      "address": "兵庫県姫路市広畑区西蒲田795",
      "lat": 34.8288805,
      "lon": 134.6329821
    },
    {
      "name": "丸亀製麺姫路辻井",
      "address": "兵庫県姫路市辻井1-245-1",
      "lat": 34.8479515,
      "lon": 134.6729967
    },
    {
      "name": "ラー麺ずんどう屋 姫路北",
      "address": "兵庫県姫路市野里326-1",
      "lat": 34.8447101,
      "lon": 134.709254
    },
    {
      "name": "豚屋とん一姫路駅前",
      "address": "兵庫県姫路市駅前町363-1フェスタビル1F",
      "lat": 34.8281301,
      "lon": 134.6910306
    },
    {
      "name": "丸亀製麺尼崎つかしん",
      "address": "兵庫県尼崎市塚口本町4-8-1グンゼタウンセンターつかしん1F",
      "lat": 34.7612368,
      "lon": 135.4191582
    },
    {
      "name": "丸亀製麺尼崎浜田",
      "address": "兵庫県尼崎市大庄川田町77",
      "lat": 34.725671,
      "lon": 135.3972269
    },
    {
      "name": "とりどーる尼崎",
      "address": "兵庫県尼崎市御園3-24-12",
      "lat": 34.7533339,
      "lon": 135.4325811
    },
    {
      "name": "丸亀製麺尼崎大物",
      "address": "兵庫県尼崎市昭和通1-10-1",
      "lat": 34.7198639,
      "lon": 135.4251556
    },
    {
      "name": "ラー麺ずんどう屋 尼崎",
      "address": "兵庫県尼崎市水堂町3丁目7-1",
      "lat": 34.744214,
      "lon": 135.3964565
    },
    {
      "name": "丸亀製麺あまがさきキューズモール",
      "address": "兵庫県尼崎市潮江1-3-1あまがさきキューズモール本館1F",
      "lat": 34.7338287,
      "lon": 135.4307907
    },
    {
      "name": "立呑み晩杯屋 阪神尼崎",
      "address": "兵庫県尼崎市神田中通３－５６",
      "lat": 34.7199393,
      "lon": 135.414094
    },
    {
      "name": "丸亀製麺イトーヨーカドー明石",
      "address": "兵庫県明石市二見町西二見駅前1-18イトーヨーカドー明石1F",
      "lat": 34.7057983,
      "lon": 134.8778879
    },
    {
      "name": "丸亀製麺明石大久保",
      "address": "兵庫県明石市大久保町西脇530-12",
      "lat": 34.68889600000001,
      "lon": 134.9298687
    },
    {
      "name": "ラー麺ずんどう屋 明石大久保",
      "address": "兵庫県明石市大久保駅前2-12-3",
      "lat": 34.6859728,
      "lon": 134.9413315
    },
    {
      "name": "丸亀製麺魚住",
      "address": "兵庫県明石市魚住町住吉1-11-9",
      "lat": 34.6918438,
      "lon": 134.9034368
    },
    {
      "name": "丸亀製麺西宮前浜",
      "address": "兵庫県西宮市前浜町1-47",
      "lat": 34.7280665,
      "lon": 135.3353011
    },
    {
      "name": "ラー麺ずんどう屋 西宮大島",
      "address": "兵庫県西宮市大島町5-15",
      "lat": 34.7618137,
      "lon": 135.3665061
    },
    {
      "name": "丸亀製麺西宮",
      "address": "兵庫県西宮市林田町5-28",
      "lat": 34.7568141,
      "lon": 135.3628153
    },
    {
      "name": "丸亀製麺ららぽーと甲子園",
      "address": "兵庫県西宮市甲子園八番町1-100ららぽーと甲子園2F",
      "lat": 34.7174448,
      "lon": 135.363298
    },
    {
      "name": "まきのラポルテ",
      "address": "兵庫県芦屋市大原町9-1-122ラポルテ東館1F",
      "lat": 34.7356555,
      "lon": 135.3072457
    },
    {
      "name": "丸亀製麺伊丹南町",
      "address": "兵庫県伊丹市南町3-2-10",
      "lat": 34.7671721,
      "lon": 135.4205092
    },
    {
      "name": "ラー麺ずんどう屋 伊丹大鹿",
      "address": "兵庫県伊丹市大鹿5-70",
      "lat": 34.7908928,
      "lon": 135.4080065
    },
    {
      "name": "丸亀製麺伊丹",
      "address": "兵庫県伊丹市寺本6-69-1",
      "lat": 34.780076,
      "lon": 135.3848879
    },
    {
      "name": "丸亀製麺イオンモール伊丹",
      "address": "兵庫県伊丹市藤ノ木1-1-1イオンモール伊丹3F",
      "lat": 34.7818261,
      "lon": 135.4238274
    },
    {
      "name": "豚屋とん一イオンモール伊丹",
      "address": "兵庫県伊丹市藤ノ木1-1-1イオンモール伊丹3F",
      "lat": 34.7817983,
      "lon": 135.4231775
    },
    {
      "name": "肉のヤマ牛イオンモール伊丹",
      "address": "兵庫県伊丹市藤ノ木1-1-1イオンモール伊丹3F",
      "lat": 34.781776,
      "lon": 135.4231265
    },
    {
      "name": "丸亀製麺相生",
      "address": "兵庫県相生市那波南本町1868-2-7",
      "lat": 34.8046919,
      "lon": 134.4597532
    },
    {
      "name": "丸亀製麺豊岡",
      "address": "兵庫県豊岡市加広町7-25",
      "lat": 35.5497665,
      "lon": 134.815707
    },
    {
      "name": "丸亀製麺加古川",
      "address": "兵庫県加古川市加古川町北在家140-1",
      "lat": 34.7569045,
      "lon": 134.8384096
    },
    {
      "name": "とりどーる加古川",
      "address": "兵庫県加古川市加古川町平野250",
      "lat": 34.7594433,
      "lon": 134.8456783
    },
    {
      "name": "丸亀製麺東加古川",
      "address": "兵庫県加古川市平岡町新在家235",
      "lat": 34.7451015,
      "lon": 134.8647616
    },
    {
      "name": "ラー麺ずんどう屋 東加古川",
      "address": "兵庫県加古川市野口町野口178",
      "lat": 34.7490724,
      "lon": 134.8589042
    },
    {
      "name": "丸亀製麺赤穂",
      "address": "兵庫県赤穂市中広2-3",
      "lat": 34.7542957,
      "lon": 134.39855
    },
    {
      "name": "ラー麺ずんどう屋 播州赤穂",
      "address": "兵庫県赤穂市海浜町96",
      "lat": 34.738459,
      "lon": 134.4019593
    },
    {
      "name": "ラー麺ずんどう屋 西脇",
      "address": "兵庫県西脇市高田井町334-1",
      "lat": 34.990686,
      "lon": 134.9630647
    },
    {
      "name": "丸亀製麺中山寺",
      "address": "兵庫県宝塚市中筋4-4-7",
      "lat": 34.8174973,
      "lon": 135.3718193
    },
    {
      "name": "ラー麺ずんどう屋 宝塚インター",
      "address": "兵庫県宝塚市安倉北2-19-8",
      "lat": 34.8047785,
      "lon": 135.3744293
    },
    {
      "name": "丸亀製麺宝塚",
      "address": "兵庫県宝塚市小林5-9-78",
      "lat": 34.7909405,
      "lon": 135.3564429
    },
    {
      "name": "とりどーる宝塚",
      "address": "兵庫県宝塚市泉町6-22",
      "lat": 34.8094736,
      "lon": 135.3697297
    },
    {
      "name": "丸亀製麺三木",
      "address": "兵庫県三木市別所町小林字釜ヶ谷734-16",
      "lat": 34.7825162,
      "lon": 135.0024254
    },
    {
      "name": "ラー麺ずんどう屋 三木",
      "address": "兵庫県三木市大村584番地1",
      "lat": 34.8059386,
      "lon": 134.9644702
    },
    {
      "name": "ラー麺ずんどう屋 高砂",
      "address": "兵庫県高砂市中島1-15",
      "lat": 34.7675045,
      "lon": 134.7992845
    },
    {
      "name": "丸亀製麺高砂北",
      "address": "兵庫県高砂市阿弥陀町魚橋字尾ノ下612-6",
      "lat": 34.7910042,
      "lon": 134.7961884
    },
    {
      "name": "ラー麺ずんどう屋 川西多田",
      "address": "兵庫県川西市多田桜木2丁目11−10",
      "lat": 34.8616507,
      "lon": 135.4157284
    },
    {
      "name": "丸亀製麺イオン三田ウッディタウン",
      "address": "兵庫県三田市けやき台1-6-2イオン三田ウッディタウン1F",
      "lat": 34.9088573,
      "lon": 135.1875892
    },
    {
      "name": "丸亀製麺三田",
      "address": "兵庫県三田市寺村町4238-1",
      "lat": 34.8816273,
      "lon": 135.2317557
    },
    {
      "name": "丸亀製麺加西",
      "address": "兵庫県加西市北条町横尾300-1",
      "lat": 34.9289388,
      "lon": 134.8358779
    },
    {
      "name": "丸亀製麺南あわじ",
      "address": "兵庫県南あわじ市山添160-1",
      "lat": 34.331909,
      "lon": 134.840964
    },
    {
      "name": "丸亀製麺滝野社",
      "address": "兵庫県加東市多井田762",
      "lat": 34.9440129,
      "lon": 134.9674069
    },
    {
      "name": "ラー麺ずんどう屋 福崎",
      "address": "兵庫県神崎郡福崎町西田原1350-1",
      "lat": 34.952647,
      "lon": 134.758936
    },
    {
      "name": "丸亀製麺福崎",
      "address": "兵庫県神崎郡福崎町西田原1819-1",
      "lat": 34.9536045,
      "lon": 134.7668058
    },
    {
      "name": "ラー麺ずんどう屋 太子",
      "address": "兵庫県揖保郡太子町太田2133",
      "lat": 34.8321829,
      "lon": 134.5985267
    },
    {
      "name": "丸亀製麺奈良",
      "address": "奈良県奈良市古市町1322",
      "lat": 34.6609513,
      "lon": 135.8326398
    },
    {
      "name": "丸亀製麺ならファミリー",
      "address": "奈良県奈良市西大寺東町2-4-1ならファミリーB1F",
      "lat": 34.69483260000001,
      "lon": 135.7851857
    },
    {
      "name": "丸亀製麺大和高田",
      "address": "奈良県大和高田市曽大根1-12-32",
      "lat": 34.4982055,
      "lon": 135.7351391
    },
    {
      "name": "丸亀製麺イオンモール大和郡山",
      "address": "奈良県大和郡山市下三橋町741イオンモール大和郡山3F",
      "lat": 34.65111660000001,
      "lon": 135.8020111
    },
    {
      "name": "丸亀製麺大和郡山",
      "address": "奈良県大和郡山市美濃庄町204-1",
      "lat": 34.6388503,
      "lon": 135.8025675
    },
    {
      "name": "丸亀製麺天理",
      "address": "奈良県天理市勾田町80-1",
      "lat": 34.5898946,
      "lon": 135.8364434
    },
    {
      "name": "丸亀製麺橿原",
      "address": "奈良県橿原市新賀町130-2",
      "lat": 34.5195967,
      "lon": 135.797656
    },
    {
      "name": "丸亀製麺イオンモール橿原",
      "address": "奈良県橿原市曲川町7-20-1イオンモール橿原2F",
      "lat": 34.5054806,
      "lon": 135.7636366
    },
    {
      "name": "豚屋とん一イオンモール橿原",
      "address": "奈良県橿原市曲川町7-20-1イオンモール橿原3F",
      "lat": 34.5053183,
      "lon": 135.7630753
    },
    {
      "name": "ラー麺ずんどう屋 奈良藤原京",
      "address": "奈良県橿原市醍醐町121-4",
      "lat": 34.5064722,
      "lon": 135.800976
    },
    {
      "name": "丸亀製麺イオンモール奈良登美ヶ丘",
      "address": "奈良県生駒市鹿畑町3027イオンモール奈良登美ヶ丘2F",
      "lat": 34.7258408,
      "lon": 135.7504697
    },
    {
      "name": "丸亀製麺平群",
      "address": "奈良県生駒郡平群町下垣内73-1",
      "lat": 34.6289128,
      "lon": 135.7061286
    },
    {
      "name": "ラー麺ずんどう屋 奈良田原本町",
      "address": "奈良県磯城郡田原本町大字千代 211-4",
      "lat": 34.5397518,
      "lon": 135.7975561
    },
    {
      "name": "丸亀製麺ラスパ西大和",
      "address": "奈良県北葛城郡上牧町ささゆり台1-1ラスパ西大和2F",
      "lat": 34.5664325,
      "lon": 135.7202467
    },
    {
      "name": "丸亀製麺王寺",
      "address": "奈良県北葛城郡王寺町本町2-13-38",
      "lat": 34.5881729,
      "lon": 135.7061489
    },
    {
      "name": "ラー麺ずんどう屋 和歌山国体道路",
      "address": "和歌山県和歌山市北中島1丁目10番51号",
      "lat": 34.2111019,
      "lon": 135.1855011
    },
    {
      "name": "丸亀製麺和歌山大谷",
      "address": "和歌山県和歌山市大谷240-1",
      "lat": 34.259834,
      "lon": 135.172924
    },
    {
      "name": "丸亀製麺和歌山",
      "address": "和歌山県和歌山市小雑賀3-6-157",
      "lat": 34.2095616,
      "lon": 135.184894
    },
    {
      "name": "丸亀製麺海南",
      "address": "和歌山県海南市船尾249-10",
      "lat": 34.1589987,
      "lon": 135.2011233
    },
    {
      "name": "丸亀製麺橋本",
      "address": "和歌山県橋本市神野々972-1",
      "lat": 34.3090529,
      "lon": 135.577352
    },
    {
      "name": "丸亀製麺御坊",
      "address": "和歌山県御坊市薗342-1",
      "lat": 33.8903983,
      "lon": 135.1516504
    },
    {
      "name": "丸亀製麺紀伊田辺",
      "address": "和歌山県田辺市下万呂583-1",
      "lat": 33.7406931,
      "lon": 135.3925111
    },
    {
      "name": "ラー麺ずんどう屋 岩出",
      "address": "和歌山県岩出市中迫83-1",
      "lat": 34.2616034,
      "lon": 135.3174894
    },
    {
      "name": "丸亀製麺岩出",
      "address": "和歌山県岩出市西野25",
      "lat": 34.2595085,
      "lon": 135.3068693
    },
    {
      "name": "丸亀製麺鳥取",
      "address": "鳥取県鳥取市岩吉198-2",
      "lat": 35.5141421,
      "lon": 134.193442
    },
    {
      "name": "ラー麺ずんどう屋 鳥取湖山",
      "address": "鳥取県鳥取市湖山町東5-211",
      "lat": 35.5142441,
      "lon": 134.1914628
    },
    {
      "name": "ラー麺ずんどう屋 米子皆生",
      "address": "鳥取県米子市皆生新田1-6-33",
      "lat": 35.450127,
      "lon": 133.3637812
    },
    {
      "name": "丸亀製麺米子",
      "address": "鳥取県米子市米原5-3-26",
      "lat": 35.4443139,
      "lon": 133.3307097
    },
    {
      "name": "丸亀製麺松江上乃木",
      "address": "島根県松江市上乃木4-15-4",
      "lat": 35.4468041,
      "lon": 133.0675881
    },
    {
      "name": "丸亀製麺松江学園",
      "address": "島根県松江市学園1-16-38",
      "lat": 35.4779006,
      "lon": 133.0684784
    },
    {
      "name": "丸亀製麺松江宍道",
      "address": "島根県松江市宍道町佐々布208-15",
      "lat": 35.4046108,
      "lon": 132.9007579
    },
    {
      "name": "ラー麺ずんどう屋 松江",
      "address": "島根県松江市西津田3丁目13-9",
      "lat": 35.4570194,
      "lon": 133.080726
    },
    {
      "name": "ラー麺ずんどう屋 松江黒田店",
      "address": "島根県松江市黒田町499-1",
      "lat": 35.4800697,
      "lon": 133.0450572
    },
    {
      "name": "ラー麺ずんどう屋 出雲店",
      "address": "島根県出雲市渡橋町1206",
      "lat": 35.3640601,
      "lon": 132.7440729
    },
    {
      "name": "丸亀製麺出雲",
      "address": "島根県出雲市渡橋町90-9",
      "lat": 35.3676294,
      "lon": 132.7526622
    },
    {
      "name": "丸亀製麺岡山インター",
      "address": "岡山県岡山市北区伊島北町9-21",
      "lat": 34.6797754,
      "lon": 133.9022197
    },
    {
      "name": "ラー麺ずんどう屋 岡山伊島",
      "address": "岡山県岡山市北区伊島北町9-24",
      "lat": 34.6801257,
      "lon": 133.9023959
    },
    {
      "name": "丸亀製麺十日市",
      "address": "岡山県岡山市北区十日市西町9-5",
      "lat": 34.636673,
      "lon": 133.9270849
    },
    {
      "name": "丸亀製麺岡山高柳",
      "address": "岡山県岡山市北区高柳西町7-27",
      "lat": 34.6610887,
      "lon": 133.8983626
    },
    {
      "name": "ラー麺ずんどう屋 岡山平井",
      "address": "岡山県岡山市中区平井6-3-21",
      "lat": 34.6408093,
      "lon": 133.937455
    },
    {
      "name": "丸亀製麺岡山東川原",
      "address": "岡山県岡山市中区東川原238-2",
      "lat": 34.6752972,
      "lon": 133.9438074
    },
    {
      "name": "丸亀製麺東岡山",
      "address": "岡山県岡山市中区長岡466-2",
      "lat": 34.6798752,
      "lon": 133.9873054
    },
    {
      "name": "丸亀製麺東平島",
      "address": "岡山県岡山市東区東平島1020-3",
      "lat": 34.7172453,
      "lon": 134.0463888
    },
    {
      "name": "丸亀製麺岡山大福",
      "address": "岡山県岡山市南区大福309-8",
      "lat": 34.621243,
      "lon": 133.877443
    },
    {
      "name": "丸亀製麺倉敷",
      "address": "岡山県倉敷市宮前326-9",
      "lat": 34.612522,
      "lon": 133.7671755
    },
    {
      "name": "ラー麺ずんどう屋 倉敷平田",
      "address": "岡山県倉敷市平田330-1",
      "lat": 34.617504,
      "lon": 133.779125
    },
    {
      "name": "丸亀製麺水島インター",
      "address": "岡山県倉敷市林360-1",
      "lat": 34.5432974,
      "lon": 133.8176715
    },
    {
      "name": "豚屋とん一イオンモール倉敷",
      "address": "岡山県倉敷市水江1イオンモール倉敷2F",
      "lat": 34.6043935,
      "lon": 133.7456791
    },
    {
      "name": "ラー麺ずんどう屋 倉敷玉島",
      "address": "岡山県倉敷市玉島1916-4",
      "lat": 34.5558288,
      "lon": 133.6808195
    },
    {
      "name": "ラー麺ずんどう屋 倉敷神田",
      "address": "岡山県倉敷市神田3-14-7",
      "lat": 34.54446,
      "lon": 133.732061
    },
    {
      "name": "丸亀製麺倉敷笹沖",
      "address": "岡山県倉敷市笹沖1325-1",
      "lat": 34.5811125,
      "lon": 133.7701119
    },
    {
      "name": "丸亀製麺倉敷連島",
      "address": "岡山県倉敷市連島町連島491-1",
      "lat": 34.5569634,
      "lon": 133.7453535
    },
    {
      "name": "ラー麺ずんどう屋 津山河辺",
      "address": "岡山県津山市河辺1061-28",
      "lat": 35.0600145,
      "lon": 134.0438407
    },
    {
      "name": "丸亀製麺津山",
      "address": "岡山県津山市河辺732",
      "lat": 35.0661499,
      "lon": 134.0500218
    },
    {
      "name": "丸亀製麺院庄",
      "address": "岡山県津山市院庄1004-1",
      "lat": 35.06016779999999,
      "lon": 133.9512118
    },
    {
      "name": "丸亀製麺玉野",
      "address": "岡山県玉野市宇野1-21-22",
      "lat": 34.4900455,
      "lon": 133.9462406
    },
    {
      "name": "丸亀製麺笠岡",
      "address": "岡山県笠岡市三番町1-1",
      "lat": 34.4985823,
      "lon": 133.5190806
    },
    {
      "name": "丸亀製麺総社",
      "address": "岡山県総社市総社1035-1-2",
      "lat": 34.6771888,
      "lon": 133.7587295
    },
    {
      "name": "丸亀製麺邑久",
      "address": "岡山県瀬戸内市邑久町尾張119",
      "lat": 34.6649653,
      "lon": 134.0909898
    },
    {
      "name": "丸亀製麺広島新天地",
      "address": "広島県広島市中区新天地5-5かずもとやビル",
      "lat": 34.3910443,
      "lon": 132.4624165
    },
    {
      "name": "丸亀製麺アーバス東千田ショッピングモール",
      "address": "広島県広島市中区東千田町1-1-108",
      "lat": 34.3829838,
      "lon": 132.4569426
    },
    {
      "name": "丸亀製麺広島東雲",
      "address": "広島県広島市南区仁保新町1-2-26",
      "lat": 34.378067,
      "lon": 132.4918518
    },
    {
      "name": "丸亀製麺広島宇品",
      "address": "広島県広島市南区宇品西3-1-44",
      "lat": 34.3630943,
      "lon": 132.4595642
    },
    {
      "name": "丸亀製麺ゆめタウン広島",
      "address": "広島県広島市南区皆実町2-8-17ゆめタウン広島3F",
      "lat": 34.3761595,
      "lon": 132.4637922
    },
    {
      "name": "豚屋とん一ゆめタウン広島",
      "address": "広島県広島市南区皆実町2-8-17ゆめタウン広島3F",
      "lat": 34.3762577,
      "lon": 132.463711
    },
    {
      "name": "丸亀製麺広島上安",
      "address": "広島県広島市安佐南区上安2-10-33",
      "lat": 34.4738007,
      "lon": 132.442749
    },
    {
      "name": "丸亀製麺イオンモール広島祇園",
      "address": "広島県広島市安佐南区祇園3-2-1イオンモール広島祇園3F",
      "lat": 34.44409419999999,
      "lon": 132.4615589
    },
    {
      "name": "丸亀製麺広島長束",
      "address": "広島県広島市安佐南区長束1-21-37",
      "lat": 34.4297905,
      "lon": 132.4615784
    },
    {
      "name": "丸亀製麺可部",
      "address": "広島県広島市安佐北区可部南4-8-10",
      "lat": 34.5086189,
      "lon": 132.5115896
    },
    {
      "name": "丸亀製麺広島安芸",
      "address": "広島県広島市安芸区船越南3-2-20",
      "lat": 34.3722886,
      "lon": 132.5257992
    },
    {
      "name": "丸亀製麺石内バイパス",
      "address": "広島県広島市佐伯区利松2-17-4",
      "lat": 34.3974838,
      "lon": 132.3685455
    },
    {
      "name": "丸亀製麺THE OUTLETS HIROSHIMA",
      "address": "広島県広島市佐伯区石内東4-1-1THE OUTLETS HIROSHIMA1F",
      "lat": 34.40957119999999,
      "lon": 132.3972296
    },
    {
      "name": "丸亀製麺呉広",
      "address": "広島県呉市広古新開2-15-27",
      "lat": 34.2355508,
      "lon": 132.6169363
    },
    {
      "name": "丸亀製麺三原",
      "address": "広島県三原市皆実2-9-26",
      "lat": 34.3907671,
      "lon": 133.0602617
    },
    {
      "name": "丸亀製麺ゆめタウン福山",
      "address": "広島県福山市入船町3-1-60ゆめタウン福山1F",
      "lat": 34.4865152,
      "lon": 133.3789444
    },
    {
      "name": "コナズ珈琲福山",
      "address": "広島県福山市南手城町3-13-3",
      "lat": 34.4823794,
      "lon": 133.3940554
    },
    {
      "name": "丸亀製麺福山引野",
      "address": "広島県福山市引野町5-19-26",
      "lat": 34.4923644,
      "lon": 133.4053716
    },
    {
      "name": "丸亀製麺福山平成大学前",
      "address": "広島県福山市御幸町大字上岩成579-1",
      "lat": 34.5464401,
      "lon": 133.3491709
    },
    {
      "name": "丸亀製麺福山新涯",
      "address": "広島県福山市新涯町1-25-41",
      "lat": 34.4619741,
      "lon": 133.3931231
    },
    {
      "name": "ラー麺ずんどう屋 福山明神",
      "address": "広島県福山市明神町2-9-18",
      "lat": 34.4913385,
      "lon": 133.400552
    },
    {
      "name": "ラー麺ずんどう屋 福山駅家",
      "address": "広島県福山市駅家町万能倉830-2",
      "lat": 34.5440572,
      "lon": 133.334511
    },
    {
      "name": "丸亀製麺松永",
      "address": "広島県福山市高西町4-4-5",
      "lat": 34.4438842,
      "lon": 133.2363233
    },
    {
      "name": "丸亀製麺府中",
      "address": "広島県府中市高木町535-1",
      "lat": 34.5631621,
      "lon": 133.24682
    },
    {
      "name": "丸亀製麺三次",
      "address": "広島県三次市南畑敷町261-6",
      "lat": 34.8058841,
      "lon": 132.875029
    },
    {
      "name": "丸亀製麺東広島",
      "address": "広島県東広島市西条町寺家4848-1",
      "lat": 34.4343462,
      "lon": 132.723005
    },
    {
      "name": "丸亀製麺広島西条",
      "address": "広島県東広島市西条町御薗宇5440-1",
      "lat": 34.4140208,
      "lon": 132.7498596
    },
    {
      "name": "丸亀製麺ゆめタウン廿日市",
      "address": "広島県廿日市市下平良2-2-1ゆめタウン廿日市3F",
      "lat": 34.3461858,
      "lon": 132.3355021
    },
    {
      "name": "丸亀製麺宮島口",
      "address": "広島県廿日市市宮島口西1-5-3",
      "lat": 34.3092004,
      "lon": 132.3018982
    },
    {
      "name": "丸亀製麺廿日市",
      "address": "広島県廿日市市本町3-34",
      "lat": 34.35246290000001,
      "lon": 132.3349214
    },
    {
      "name": "丸亀製麺ゆめシティ",
      "address": "山口県下関市伊倉新町3-1-1ゆめシティ3F",
      "lat": 34.0067291,
      "lon": 130.9340973
    },
    {
      "name": "丸亀製麺新下関",
      "address": "山口県下関市秋根北町8-3",
      "lat": 34.0128864,
      "lon": 130.9533069
    },
    {
      "name": "丸亀製麺シーモール下関",
      "address": "山口県下関市竹崎町4-4-8シーモール下関1F",
      "lat": 33.9492735,
      "lon": 130.9240451
    },
    {
      "name": "丸亀製麺宇部際波",
      "address": "山口県宇部市厚南中央1-7-56",
      "lat": 33.9952148,
      "lon": 131.2196319
    },
    {
      "name": "丸亀製麺山口",
      "address": "山口県山口市大内矢田北3-22-16",
      "lat": 34.1554758,
      "lon": 131.5035026
    },
    {
      "name": "丸亀製麺小郡",
      "address": "山口県山口市小郡下郷749-1",
      "lat": 34.09949330000001,
      "lon": 131.3927464
    },
    {
      "name": "丸亀製麺防府",
      "address": "山口県防府市国衙1-12-20",
      "lat": 34.055476,
      "lon": 131.5861521
    },
    {
      "name": "丸亀製麺岩国",
      "address": "山口県岩国市室の木町1-9-10",
      "lat": 34.1709361,
      "lon": 132.2076096
    },
    {
      "name": "丸亀製麺光",
      "address": "山口県光市浅江2-8-14",
      "lat": 33.9717977,
      "lon": 131.9250988
    },
    {
      "name": "丸亀製麺柳井",
      "address": "山口県柳井市大字柳井1740-1",
      "lat": 33.9623045,
      "lon": 132.1204034
    },
    {
      "name": "丸亀製麺周南久米",
      "address": "山口県周南市久米281-12",
      "lat": 34.0288518,
      "lon": 131.8414931
    },
    {
      "name": "丸亀製麺周南",
      "address": "山口県周南市古泉1-9-3",
      "lat": 34.0670054,
      "lon": 131.7642416
    },
    {
      "name": "丸亀製麺徳島",
      "address": "徳島県徳島市佐古一番町7-17",
      "lat": 34.0771524,
      "lon": 134.5409949
    },
    {
      "name": "丸亀製麺徳島八万",
      "address": "徳島県徳島市八万町大野141-6",
      "lat": 34.0431883,
      "lon": 134.5546673
    },
    {
      "name": "丸亀製麺徳島インター",
      "address": "徳島県徳島市川内町竹須賀176-1",
      "lat": 34.1047523,
      "lon": 134.5755159
    },
    {
      "name": "丸亀製麺阿南",
      "address": "徳島県阿南市領家町火屋ヶ原147-1",
      "lat": 33.9216646,
      "lon": 134.666526
    },
    {
      "name": "丸亀製麺鴨島",
      "address": "徳島県吉野川市鴨島町上下島370-1",
      "lat": 34.06816910000001,
      "lon": 134.3495965
    },
    {
      "name": "丸亀製麺藍住",
      "address": "徳島県板野郡藍住町矢上字北分93-1",
      "lat": 34.1357386,
      "lon": 134.4965266
    },
    {
      "name": "肉のヤマ牛ゆめタウン高松",
      "address": "香川県高松市三条町608-1ゆめタウン高松東館2F",
      "lat": 34.3161054,
      "lon": 134.0430626
    },
    {
      "name": "丸亀製麺高松レインボー通り",
      "address": "香川県高松市多肥下町1568-6",
      "lat": 34.2990009,
      "lon": 134.0578129
    },
    {
      "name": "コナズ珈琲栗林公園",
      "address": "香川県高松市室新町972-6",
      "lat": 34.3239173,
      "lon": 134.0433778
    },
    {
      "name": "丸亀製麺松山松末",
      "address": "愛媛県松山市三町3-10-1",
      "lat": 33.8242822,
      "lon": 132.7918978
    },
    {
      "name": "丸亀製麺松山六軒家",
      "address": "愛媛県松山市六軒家町3-35",
      "lat": 33.8514749,
      "lon": 132.7488628
    },
    {
      "name": "丸亀製麺松山",
      "address": "愛媛県松山市古川北1-10-12",
      "lat": 33.814263,
      "lon": 132.76589
    },
    {
      "name": "丸亀製麺松山谷町",
      "address": "愛媛県松山市谷町186-8",
      "lat": 33.877111,
      "lon": 132.752382
    },
    {
      "name": "豚屋とん一イオンモール今治新都市",
      "address": "愛媛県今治市にぎわい広場1-1イオンモール今治新都市1F",
      "lat": 34.04378,
      "lon": 132.9623783
    },
    {
      "name": "丸亀製麺今治",
      "address": "愛媛県今治市旭町3-2-4",
      "lat": 34.0613716,
      "lon": 133.0021661
    },
    {
      "name": "丸亀製麺宇和島",
      "address": "愛媛県宇和島市中沢町1-5-5",
      "lat": 33.2081947,
      "lon": 132.5569916
    },
    {
      "name": "丸亀製麺イオンモール新居浜",
      "address": "愛媛県新居浜市前田町8-8イオンモール新居浜2F",
      "lat": 33.9533074,
      "lon": 133.268844
    },
    {
      "name": "丸亀製麺新居浜",
      "address": "愛媛県新居浜市坂井町1-5-17",
      "lat": 33.947431,
      "lon": 133.289791
    },
    {
      "name": "丸亀製麺伊予大洲",
      "address": "愛媛県大洲市東大洲284-1",
      "lat": 33.5214615,
      "lon": 132.5546187
    },
    {
      "name": "丸亀製麺高知",
      "address": "高知県高知市南金田3-31",
      "lat": 33.5654062,
      "lon": 133.5560568
    },
    {
      "name": "丸亀製麺土佐道路",
      "address": "高知県高知市大谷公園町17-14",
      "lat": 33.5338105,
      "lon": 133.480307
    },
    {
      "name": "丸亀製麺イオンモール高知",
      "address": "高知県高知市秦南町1-4-8イオンモール高知東館3F",
      "lat": 33.576096,
      "lon": 133.542368
    },
    {
      "name": "丸亀製麺高知高須",
      "address": "高知県高知市高須3-28-25",
      "lat": 33.5604553,
      "lon": 133.5929565
    },
    {
      "name": "丸亀製麺四万十",
      "address": "高知県四万十市右山2009-1",
      "lat": 32.9816581,
      "lon": 132.9389892
    },
    {
      "name": "コナズ珈琲那珂川",
      "address": "福岡県那珂川市道善2-5",
      "lat": 33.5142907,
      "lon": 130.4229182
    },
    {
      "name": "丸亀製麺小倉",
      "address": "福岡県北九州市小倉北区白銀1-3-1",
      "lat": 33.8715782,
      "lon": 130.8748932
    },
    {
      "name": "丸亀製麺サンリブシティ小倉",
      "address": "福岡県北九州市小倉南区上葛原2-14-1サンリブシティ小倉2F",
      "lat": 33.8393791,
      "lon": 130.9085361
    },
    {
      "name": "コナズ珈琲八幡",
      "address": "福岡県北九州市八幡東区東田1-2-3",
      "lat": 33.870276,
      "lon": 130.802685
    },
    {
      "name": "丸亀製麺八幡",
      "address": "福岡県北九州市八幡西区引野2-6-14",
      "lat": 33.8418072,
      "lon": 130.7546392
    },
    {
      "name": "丸亀製麺八幡本城",
      "address": "福岡県北九州市八幡西区御開4-8-20",
      "lat": 33.8912697,
      "lon": 130.7349396
    },
    {
      "name": "丸亀製麺福岡原田",
      "address": "福岡県福岡市東区原田3-7-39",
      "lat": 33.6216296,
      "lon": 130.4388567
    },
    {
      "name": "丸亀製麺博多駅南",
      "address": "福岡県福岡市博多区博多駅南5-14-28",
      "lat": 33.5790189,
      "lon": 130.4242305
    },
    {
      "name": "丸亀製麺西月隈",
      "address": "福岡県福岡市博多区西月隈3-5-23",
      "lat": 33.5712128,
      "lon": 130.4550629
    },
    {
      "name": "丸亀製麺MARK IS 福岡ももち",
      "address": "福岡県福岡市中央区地行浜2-2-1MARK IS福岡ももち3F",
      "lat": 33.5928054,
      "lon": 130.3633227
    },
    {
      "name": "丸亀製麺福岡賀茂",
      "address": "福岡県福岡市早良区賀茂4-427-1",
      "lat": 33.5511184,
      "lon": 130.33615
    },
    {
      "name": "丸亀製麺イオンモール大牟田",
      "address": "福岡県大牟田市岬町3-4イオンモール大牟田1F",
      "lat": 33.0306586,
      "lon": 130.4282123
    },
    {
      "name": "丸亀製麺大牟田",
      "address": "福岡県大牟田市長田町7-1",
      "lat": 33.0134519,
      "lon": 130.4390598
    },
    {
      "name": "丸亀製麺ゆめタウン久留米",
      "address": "福岡県久留米市新合川1-2-1ゆめタウン久留米2F",
      "lat": 33.321778,
      "lon": 130.539228
    },
    {
      "name": "コナズ珈琲久留米",
      "address": "福岡県久留米市諏訪野町字中田1951-1-3",
      "lat": 33.3043605,
      "lon": 130.5255934
    },
    {
      "name": "丸亀製麺穂波",
      "address": "福岡県飯塚市太郎丸937-1",
      "lat": 33.6107453,
      "lon": 130.6713854
    },
    {
      "name": "丸亀製麺筑後",
      "address": "福岡県筑後市山ノ井691-2",
      "lat": 33.20891950000001,
      "lon": 130.5062103
    },
    {
      "name": "丸亀製麺イオンモール筑紫野",
      "address": "福岡県筑紫野市立明寺434-1イオンモール筑紫野3F",
      "lat": 33.48111859999999,
      "lon": 130.5268214
    },
    {
      "name": "豚屋とん一イオンモール筑紫野",
      "address": "福岡県筑紫野市立明寺434-1イオンモール筑紫野3F",
      "lat": 33.4809437,
      "lon": 130.5261861
    },
    {
      "name": "丸亀製麺春日フォレストシティ",
      "address": "福岡県春日市星見ヶ丘4-16春日フォレストシティ",
      "lat": 33.5055474,
      "lon": 130.4533126
    },
    {
      "name": "丸亀製麺大野城",
      "address": "福岡県大野城市白木原5-1-10",
      "lat": 33.5312632,
      "lon": 130.4853292
    },
    {
      "name": "丸亀製麺イオンモール福津",
      "address": "福岡県福津市日蒔野6-16-1イオンモール福津3F",
      "lat": 33.7544162,
      "lon": 130.4948417
    },
    {
      "name": "丸亀製麺イオンモール福岡",
      "address": "福岡県糟屋郡粕屋町酒殿字老ノ木192-1イオンモール福岡2F",
      "lat": 33.5968303,
      "lon": 130.4796369
    },
    {
      "name": "丸亀製麺ゆめタウン佐賀",
      "address": "佐賀県佐賀市兵庫北5-14-1ゆめタウン佐賀2F",
      "lat": 33.2755585,
      "lon": 130.3079054
    },
    {
      "name": "丸亀製麺佐賀",
      "address": "佐賀県佐賀市本庄町本庄1-3",
      "lat": 33.2388623,
      "lon": 130.2976687
    },
    {
      "name": "丸亀製麺鳥栖",
      "address": "佐賀県鳥栖市神辺町下川原2-1",
      "lat": 33.388095,
      "lon": 130.5138202
    },
    {
      "name": "丸亀製麺東長崎",
      "address": "長崎県長崎市中里町1237-2",
      "lat": 32.8051542,
      "lon": 129.9632979
    },
    {
      "name": "丸亀製麺夢彩都",
      "address": "長崎県長崎市元船町10-1夢彩都B1F",
      "lat": 32.74628300000001,
      "lon": 129.8699815
    },
    {
      "name": "丸亀製麺長崎浜町",
      "address": "長崎県長崎市浜町2-36",
      "lat": 32.7446842,
      "lon": 129.8769309
    },
    {
      "name": "丸亀製麺みらい長崎ココウォーク",
      "address": "長崎県長崎市茂里町1-55みらい長崎ココウォーク3F",
      "lat": 32.7623216,
      "lon": 129.8647391
    },
    {
      "name": "丸亀製麺佐世保吉岡",
      "address": "長崎県佐世保市吉岡町1816-1",
      "lat": 33.2106848,
      "lon": 129.7076742
    },
    {
      "name": "丸亀製麺島原",
      "address": "長崎県島原市前浜町61-1",
      "lat": 32.8053307,
      "lon": 130.3624122
    },
    {
      "name": "丸亀製麺諫早",
      "address": "長崎県諫早市長野町1013-1",
      "lat": 32.8330084,
      "lon": 130.0741753
    },
    {
      "name": "丸亀製麺大村",
      "address": "長崎県大村市西本町479-15",
      "lat": 32.9050918,
      "lon": 129.9571269
    },
    {
      "name": "丸亀製麺時津",
      "address": "長崎県西彼杵郡時津町久留里郷247-1",
      "lat": 32.839316,
      "lon": 129.8381775
    },
    {
      "name": "コナズ珈琲長崎時津",
      "address": "長崎県西彼杵郡時津町日並郷2195-53",
      "lat": 32.8486443,
      "lon": 129.8301268
    },
    {
      "name": "丸亀製麺南熊本",
      "address": "熊本県熊本市中央区南熊本3-5-1APタウンはません1F",
      "lat": 32.7876673,
      "lon": 130.7135638
    },
    {
      "name": "丸亀製麺熊本佐土原",
      "address": "熊本県熊本市東区佐土原2-4-186",
      "lat": 32.7903019,
      "lon": 130.7780215
    },
    {
      "name": "コナズ珈琲熊本",
      "address": "熊本県熊本市東区健軍本町26-7",
      "lat": 32.7881742,
      "lon": 130.7587203
    },
    {
      "name": "丸亀製麺熊本",
      "address": "熊本県熊本市南区近見7-1-30",
      "lat": 32.761179,
      "lon": 130.689672
    },
    {
      "name": "丸亀製麺熊本武蔵ヶ丘",
      "address": "熊本県熊本市北区武蔵ヶ丘7-4-16",
      "lat": 32.8560748,
      "lon": 130.7773877
    },
    {
      "name": "丸亀製麺熊本高平",
      "address": "熊本県熊本市北区高平3-42-7",
      "lat": 32.8393558,
      "lon": 130.718804
    },
    {
      "name": "丸亀製麺八代",
      "address": "熊本県八代市旭中央通5-13",
      "lat": 32.5027996,
      "lon": 130.6159746
    },
    {
      "name": "丸亀製麺クロス21UTO",
      "address": "熊本県宇土市水町50-1",
      "lat": 32.6902242,
      "lon": 130.671286
    },
    {
      "name": "丸亀製麺ゆめタウン光の森",
      "address": "熊本県菊池郡菊陽町光の森7-33-1ゆめタウン光の森南館2F",
      "lat": 32.86030119999999,
      "lon": 130.784305
    },
    {
      "name": "丸亀製麺イオンモール熊本",
      "address": "熊本県上益城郡嘉島町大字上島字長池2232イオンモール熊本2F",
      "lat": 32.7377082,
      "lon": 130.7443398
    },
    {
      "name": "豚屋とん一パークプレイス大分",
      "address": "大分県大分市公園通り西2-1パークプレイス大分2F",
      "lat": 33.1960272,
      "lon": 131.6568548
    },
    {
      "name": "丸亀製麺大分",
      "address": "大分県大分市大字森584-1",
      "lat": 33.2210901,
      "lon": 131.6809
    },
    {
      "name": "コナズ珈琲南大分",
      "address": "大分県大分市大字豊饒375-1",
      "lat": 33.2085869,
      "lon": 131.5997465
    },
    {
      "name": "丸亀製麺大分王子",
      "address": "大分県大分市王子南町1-36",
      "lat": 33.2404128,
      "lon": 131.5938905
    },
    {
      "name": "丸亀製麺大分わさだ",
      "address": "大分県大分市田尻100-1",
      "lat": 33.1915312,
      "lon": 131.5955061
    },
    {
      "name": "豚屋とん一アミュプラザおおいた",
      "address": "大分県大分市要町1-14アミュプラザおおいた3F",
      "lat": 33.2331459,
      "lon": 131.6063255
    },
    {
      "name": "丸亀製麺豊後にわさき市場",
      "address": "大分県大分市要町1-40",
      "lat": 33.2322411,
      "lon": 131.6064917
    },
    {
      "name": "丸亀製麺別府",
      "address": "大分県別府市汐見町7-30",
      "lat": 33.3033866,
      "lon": 131.5019022
    },
    {
      "name": "丸亀製麺中津",
      "address": "大分県中津市沖代町1-1-1",
      "lat": 33.5931936,
      "lon": 131.1971343
    },
    {
      "name": "丸亀製麺宮崎住吉",
      "address": "宮崎県宮崎市大字新名爪字宮田210",
      "lat": 31.9777622,
      "lon": 131.4436549
    },
    {
      "name": "丸亀製麺宮崎",
      "address": "宮崎県宮崎市大島町1431",
      "lat": 31.932918,
      "lon": 131.4375864
    },
    {
      "name": "コナズ珈琲宮崎",
      "address": "宮崎県宮崎市大島町前田381",
      "lat": 31.945441,
      "lon": 131.4416918
    },
    {
      "name": "丸亀製麺イオンモール宮崎",
      "address": "宮崎県宮崎市新別府町江口862-1イオンモール宮崎2F",
      "lat": 31.9228548,
      "lon": 131.455618
    },
    {
      "name": "丸亀製麺イオンモール都城駅前",
      "address": "宮崎県都城市栄町4672-5イオンモール都城駅前2F",
      "lat": 31.7352332,
      "lon": 131.0799245
    },
    {
      "name": "丸亀製麺都城",
      "address": "宮崎県都城市甲斐元町12街区1",
      "lat": 31.71674539999999,
      "lon": 131.0605469
    },
    {
      "name": "丸亀製麺延岡",
      "address": "宮崎県延岡市日の出町1-6-4",
      "lat": 32.5877497,
      "lon": 131.6764682
    },
    {
      "name": "丸亀製麺鹿児島南栄",
      "address": "鹿児島県鹿児島市南栄6-916-73",
      "lat": 31.503346,
      "lon": 130.5167731
    },
    {
      "name": "丸亀製麺鹿児島吉野",
      "address": "鹿児島県鹿児島市吉野2-39-13",
      "lat": 31.6583672,
      "lon": 130.5679069
    },
    {
      "name": "丸亀製麺鹿児島",
      "address": "鹿児島県鹿児島市堀江町12-7",
      "lat": 31.5892795,
      "lon": 130.5616725
    },
    {
      "name": "丸亀製麺鹿児島宇宿",
      "address": "鹿児島県鹿児島市宇宿1-20-7",
      "lat": 31.5490136,
      "lon": 130.5427908
    },
    {
      "name": "丸亀製麺イオンモール鹿児島",
      "address": "鹿児島県鹿児島市東開町7イオンモール3F",
      "lat": 31.527364,
      "lon": 130.536718
    },
    {
      "name": "丸亀製麺鹿屋",
      "address": "鹿児島県鹿屋市寿7-12-5",
      "lat": 31.387017,
      "lon": 130.8721977
    },
    {
      "name": "丸亀製麺出水",
      "address": "鹿児島県出水市黄金町313-1",
      "lat": 32.1028904,
      "lon": 130.3459117
    },
    {
      "name": "丸亀製麺霧島",
      "address": "鹿児島県霧島市国分野口東8-39",
      "lat": 31.7376491,
      "lon": 130.7539151
    },
    {
      "name": "丸亀製麺いちき串木野",
      "address": "鹿児島県いちき串木野市ひばりが丘5708-5",
      "lat": 31.7104091,
      "lon": 130.2787738
    },
    {
      "name": "丸亀製麺加治木",
      "address": "鹿児島県姶良市加治木町木田2483-1",
      "lat": 31.7353127,
      "lon": 130.6472911
    },
    {
      "name": "丸亀製麺那覇津嘉山",
      "address": "沖縄県那覇市字仲井真373",
      "lat": 26.1919989,
      "lon": 127.7070396
    },
    {
      "name": "丸亀製麺宜野湾",
      "address": "沖縄県宜野湾市真志喜5丁目2番8号",
      "lat": 26.2700035,
      "lon": 127.7367322
    },
    {
      "name": "丸亀製麺サンエー浦添西海岸パルコシティ",
      "address": "沖縄県浦添市西洲3丁目1-1サンエー浦添西海岸パルコシティ1F",
      "lat": 26.261871,
      "lon": 127.6975639
    },
    {
      "name": "丸亀製麺糸満",
      "address": "沖縄県糸満市字潮平782-1",
      "lat": 26.1514542,
      "lon": 127.671833
    },
    {
      "name": "丸亀製麺沖縄美里",
      "address": "沖縄県沖縄市美原2-16-18",
      "lat": 26.344577,
      "lon": 127.8207431
    },
    {
      "name": "コナズ珈琲アメリカンビレッジ",
      "address": "沖縄県中頭郡北谷町字美浜9-8",
      "lat": 26.3160258,
      "lon": 127.7561365
    },
    {
      "name": "PALM WAGONアメリカンビレッジ",
      "address": "沖縄県中頭郡北谷町字美浜9-8",
      "lat": 26.3158816,
      "lon": 127.7561543
    },
    {
      "name": "丸亀製麺北谷",
      "address": "沖縄県中頭郡北谷町美浜3-6-3",
      "lat": 26.3245117,
      "lon": 127.7553207
    },
    {
      "name": "丸亀製麺イオンモール沖縄ライカム",
      "address": "沖縄県中頭郡北中城村字ライカム1番地イオンモール沖縄ライカム 4F",
      "lat": 26.3139586,
      "lon": 127.7970634
    },
    {
      "name": "丸亀製麺南風原",
      "address": "沖縄県島尻郡南風原町字兼城256-1",
      "lat": 26.1962519,
      "lon": 127.7312564
    }
  ]
}
