{
  "9994": [
    {
      "name": "やまや三沢松園店",
      "address": "青森県三沢市松園町3-4-1",
      "lat": 40.6750755,
      "lon": 141.36508
    },
    {
      "name": "やまや新井田店",
      "address": "青森県八戸市新井田西3-15-6",
      "lat": 40.4967525,
      "lon": 141.5165573
    },
    {
      "name": "やまや十和田店",
      "address": "青森県十和田市穂並町12-50",
      "lat": 40.6024523,
      "lon": 141.223891
    },
    {
      "name": "やまや弘前樹木店",
      "address": "青森県弘前市大字樹木4-6-1",
      "lat": 40.5880246,
      "lon": 140.4552724
    },
    {
      "name": "やまや青森桜川店",
      "address": "青森県青森市桜川6-12-5",
      "lat": 40.8110435,
      "lon": 140.767556
    },
    {
      "name": "やまや一関店",
      "address": "岩手県一関市山目字寺前45番地3",
      "lat": 38.93654,
      "lon": 141.1213561
    },
    {
      "name": "やまや北上店",
      "address": "岩手県北上市北鬼柳18地割33",
      "lat": 39.2942082,
      "lon": 141.098488
    },
    {
      "name": "やまや前沢店",
      "address": "岩手県奥州市前沢向田2-89",
      "lat": 39.0532799,
      "lon": 141.1303091
    },
    {
      "name": "やまや水沢店",
      "address": "岩手県奥州市水沢佐倉河字石橋14番地1",
      "lat": 39.1478934,
      "lon": 141.1535328
    },
    {
      "name": "やまや江刺店",
      "address": "岩手県奥州市江刺区岩谷堂南八日市93-3",
      "lat": 39.1838631,
      "lon": 141.1714134
    },
    {
      "name": "やまや宮古宮町店",
      "address": "岩手県宮古市宮町1-4-11",
      "lat": 39.6386386,
      "lon": 141.944188
    },
    {
      "name": "やまや都南店",
      "address": "岩手県盛岡市三本柳７地割６９番地５",
      "lat": 39.6580788,
      "lon": 141.1631903
    },
    {
      "name": "やまや月が丘店",
      "address": "岩手県盛岡市月が丘一丁目２９－１",
      "lat": 39.7331165,
      "lon": 141.1139831
    },
    {
      "name": "やまや盛岡本宮店",
      "address": "岩手県盛岡市本宮3-18-8",
      "lat": 39.6892965,
      "lon": 141.1353924
    },
    {
      "name": "やまや矢巾店",
      "address": "岩手県紫波郡矢巾町大字南矢幅第7地割376",
      "lat": 39.6130249,
      "lon": 141.1532111
    },
    {
      "name": "やまや紫波店",
      "address": "岩手県紫波郡紫波町北日詰字下東ノ坊64番地",
      "lat": 39.5362169,
      "lon": 141.1698303
    },
    {
      "name": "やまや花巻店",
      "address": "岩手県花巻市坂本町4-5",
      "lat": 39.3921388,
      "lon": 141.117773
    },
    {
      "name": "やまや富沢西店",
      "address": "仙台市太白区富沢西3-13-1",
      "lat": 38.2124274,
      "lon": 140.8552275
    },
    {
      "name": "やまや古川北店",
      "address": "大崎市古川沢田字筒場浦15",
      "lat": 38.5990232,
      "lon": 140.9741564
    },
    {
      "name": "やまや亘理店",
      "address": "宮城県亘理郡亘理町字中町東４３－１",
      "lat": 38.0344651,
      "lon": 140.8555055
    },
    {
      "name": "やまやあすと長町店",
      "address": "宮城県仙台市太白区あすと長町2-3-27",
      "lat": 38.2220054,
      "lon": 140.8859164
    },
    {
      "name": "やまや中田店",
      "address": "宮城県仙台市太白区中田町字法地北１６－１",
      "lat": 38.1972398,
      "lon": 140.9007378
    },
    {
      "name": "やまや柳生店",
      "address": "宮城県仙台市太白区柳生7-4-1",
      "lat": 38.1971864,
      "lon": 140.8661737
    },
    {
      "name": "やまや西多賀店",
      "address": "宮城県仙台市太白区西多賀4-11-17",
      "lat": 38.222084,
      "lon": 140.850995
    },
    {
      "name": "やまや幸町店",
      "address": "宮城県仙台市宮城野区大梶７－１０",
      "lat": 38.2716831,
      "lon": 140.9004057
    },
    {
      "name": "やまや小田原店",
      "address": "宮城県仙台市宮城野区小田原2-2-50",
      "lat": 38.2641629,
      "lon": 140.8951486
    },
    {
      "name": "やまや新田東店",
      "address": "宮城県仙台市宮城野区新田東5-13-10",
      "lat": 38.2805867,
      "lon": 140.9331465
    },
    {
      "name": "やまや榴岡店",
      "address": "宮城県仙台市宮城野区榴岡5丁目10番13号",
      "lat": 38.2578532,
      "lon": 140.8953479
    },
    {
      "name": "やまや福室店",
      "address": "宮城県仙台市宮城野区福室4-18-24",
      "lat": 38.2758,
      "lon": 140.9746159
    },
    {
      "name": "やまや東鶴ケ谷店",
      "address": "宮城県仙台市宮城野区鶴ケ谷東３－２１－３",
      "lat": 38.2935132,
      "lon": 140.9311024
    },
    {
      "name": "やまや加茂店",
      "address": "宮城県仙台市泉区加茂１－１－１",
      "lat": 38.3147981,
      "lon": 140.8672904
    },
    {
      "name": "やまや生協南光台店",
      "address": "宮城県仙台市泉区南光台七丁目19-11",
      "lat": 38.3018235,
      "lon": 140.9005982
    },
    {
      "name": "やまや南光台南店",
      "address": "宮城県仙台市泉区南光台南３－２１－１０",
      "lat": 38.2926374,
      "lon": 140.9058247
    },
    {
      "name": "やまや市名坂店",
      "address": "宮城県仙台市泉区市名坂字鹿島140番地",
      "lat": 38.3149361,
      "lon": 140.9085452
    },
    {
      "name": "やまや泉野村店",
      "address": "宮城県仙台市泉区野村字菅間前52-8",
      "lat": 38.3281307,
      "lon": 140.8668775
    },
    {
      "name": "やまや長命ヶ丘店",
      "address": "宮城県仙台市泉区長命ヶ丘５丁目１３番地の８",
      "lat": 38.312588,
      "lon": 140.8346335
    },
    {
      "name": "やまや大和町店",
      "address": "宮城県仙台市若林区大和町４－７－３６",
      "lat": 38.2491417,
      "lon": 140.9162226
    },
    {
      "name": "やまや沖野店",
      "address": "宮城県仙台市若林区沖野２－４－１５",
      "lat": 38.2305883,
      "lon": 140.9085245
    },
    {
      "name": "やまや若林西店",
      "address": "宮城県仙台市若林区若林１－５－３８",
      "lat": 38.2339066,
      "lon": 140.8947337
    },
    {
      "name": "やまや六丁の目店",
      "address": "宮城県仙台市若林区荒井五丁目17番地の2",
      "lat": 38.2485482,
      "lon": 140.9459632
    },
    {
      "name": "やまや仙台トラストシティ店",
      "address": "宮城県仙台市青葉区一番町1-9-1仙台トラストタワー1階",
      "lat": 38.2563755,
      "lon": 140.8761832
    },
    {
      "name": "やまや上杉店",
      "address": "宮城県仙台市青葉区上杉６－１－８",
      "lat": 38.2763073,
      "lon": 140.8783814
    },
    {
      "name": "やまや愛子店",
      "address": "宮城県仙台市青葉区愛子東１－５－１８",
      "lat": 38.2729513,
      "lon": 140.7787437
    },
    {
      "name": "やまや生協愛子店",
      "address": "宮城県仙台市青葉区栗生7-1-1宮城生協愛子店内",
      "lat": 38.2679707,
      "lon": 140.7785545
    },
    {
      "name": "やまや通町店",
      "address": "宮城県仙台市青葉区通町２－１１－１７",
      "lat": 38.2803206,
      "lon": 140.8645143
    },
    {
      "name": "やまや手倉田店",
      "address": "宮城県名取市手倉田字諏訪561",
      "lat": 38.1692179,
      "lon": 140.8758375
    },
    {
      "name": "やまや杜せきのした店",
      "address": "宮城県名取市杜せきのした5-4-1",
      "lat": 38.1640436,
      "lon": 140.8989373
    },
    {
      "name": "やまや塩釜店",
      "address": "宮城県塩釜市新浜町１－５－５",
      "lat": 38.3255971,
      "lon": 141.0370663
    },
    {
      "name": "やまや清水沢店",
      "address": "宮城県塩釜市清水沢２－１－１",
      "lat": 38.3253443,
      "lon": 141.0055552
    },
    {
      "name": "やまや多賀城店",
      "address": "宮城県多賀城市町前2-3-4",
      "lat": 38.2853818,
      "lon": 141.0047257
    },
    {
      "name": "やまや高橋店",
      "address": "宮城県多賀城市高橋４－５－２",
      "lat": 38.2903352,
      "lon": 140.9837577
    },
    {
      "name": "やまや大崎店",
      "address": "宮城県大崎市古川駅東２丁目６－４０",
      "lat": 38.5744279,
      "lon": 140.9732003
    },
    {
      "name": "やまや鹿島台店",
      "address": "宮城県大崎市木間塚小谷地３３３－１",
      "lat": 38.476624,
      "lon": 141.1070207
    },
    {
      "name": "やまや利府店",
      "address": "宮城県宮城郡利府町利府字新大谷地１２－１",
      "lat": 38.3275196,
      "lon": 140.9735356
    },
    {
      "name": "やまや明石台店",
      "address": "宮城県富谷市明石台６丁目１番地３７",
      "lat": 38.3476756,
      "lon": 140.8937794
    },
    {
      "name": "やまや岩沼店",
      "address": "宮城県岩沼市梶橋２－３０セラビ岩沼店内",
      "lat": 38.1242872,
      "lon": 140.8718876
    },
    {
      "name": "やまや矢本店",
      "address": "宮城県東松島市小松字上浮足４３",
      "lat": 38.425341,
      "lon": 141.2041688
    },
    {
      "name": "やまや大河原店",
      "address": "宮城県柴田郡大河原町字新南57‐5",
      "lat": 38.0497757,
      "lon": 140.7284986
    },
    {
      "name": "やまや槻木店",
      "address": "宮城県柴田郡柴田町槻木下町１－４－３８",
      "lat": 38.0817394,
      "lon": 140.8145821
    },
    {
      "name": "やまや船岡店",
      "address": "宮城県柴田郡柴田町船岡中央３－６－１３",
      "lat": 38.0545526,
      "lon": 140.7680469
    },
    {
      "name": "やまや築館店",
      "address": "宮城県栗原市志波姫堀口宮中114-1",
      "lat": 38.7384665,
      "lon": 141.020193
    },
    {
      "name": "やまや気仙沼上田中店",
      "address": "宮城県気仙沼市上田中1-9-5",
      "lat": 38.8884895,
      "lon": 141.5550586
    },
    {
      "name": "やまや佐沼店",
      "address": "宮城県登米市迫町佐沼字中江５－４－２",
      "lat": 38.6891431,
      "lon": 141.1853088
    },
    {
      "name": "やまや白石北店",
      "address": "宮城県白石市福岡長袋字高畑11",
      "lat": 38.0225198,
      "lon": 140.6253201
    },
    {
      "name": "やまやあけぼの店",
      "address": "宮城県石巻市あけぼの2-2-6",
      "lat": 38.4497597,
      "lon": 141.2730391
    },
    {
      "name": "やまや大街道店",
      "address": "宮城県石巻市三ツ股1-2-127",
      "lat": 38.4297974,
      "lon": 141.2708819
    },
    {
      "name": "やまや湊鹿妻店",
      "address": "宮城県石巻市鹿妻南3-7-37",
      "lat": 38.4180485,
      "lon": 141.3440607
    },
    {
      "name": "やまや角田店",
      "address": "宮城県角田市角田字錦町31-5",
      "lat": 37.9800906,
      "lon": 140.7816655
    },
    {
      "name": "やまや涌谷店",
      "address": "宮城県遠田郡涌谷町字蔵人沖名３８－１",
      "lat": 38.545661,
      "lon": 141.111455
    },
    {
      "name": "やまや小牛田店",
      "address": "宮城県遠田郡美里町北浦字新高原１５",
      "lat": 38.5609978,
      "lon": 141.0427936
    },
    {
      "name": "やまや吉岡店",
      "address": "宮城県黒川郡大和町吉岡東１－１－１１",
      "lat": 38.4365316,
      "lon": 140.8915482
    },
    {
      "name": "やまや東北物流センターオープン予定",
      "address": "宮城県黒川郡大和町松坂平８－１",
      "lat": 38.4557041,
      "lon": 140.9370231
    },
    {
      "name": "やまや大曲店",
      "address": "秋田県大仙市東川字佐戸9-1",
      "lat": 39.4506529,
      "lon": 140.4952153
    },
    {
      "name": "やまや大館樹海ライン店",
      "address": "秋田県大館市字大田面373-1",
      "lat": 40.2847204,
      "lon": 140.5746886
    },
    {
      "name": "やまや大館店",
      "address": "秋田県大館市根下戸新町18-84イオンタウン大館西内",
      "lat": 40.273413,
      "lon": 140.5288106
    },
    {
      "name": "やまや横手店",
      "address": "秋田県横手市梅の木町7-24",
      "lat": 39.316869,
      "lon": 140.5560782
    },
    {
      "name": "やまや湯沢店",
      "address": "秋田県湯沢市元清水4-3-43",
      "lat": 39.1709763,
      "lon": 140.4840625
    },
    {
      "name": "やまや由利本荘店",
      "address": "秋田県由利本荘市東梵天144",
      "lat": 39.3843423,
      "lon": 140.0632768
    },
    {
      "name": "やまや土崎店",
      "address": "秋田県秋田市土崎港北7丁目77-1",
      "lat": 39.767278,
      "lon": 140.069248
    },
    {
      "name": "やまや山王店",
      "address": "秋田県秋田市山王３丁目４番４号",
      "lat": 39.7167494,
      "lon": 140.1078991
    },
    {
      "name": "やまや広面店",
      "address": "秋田県秋田市広面字蓮沼１２－１",
      "lat": 39.7300168,
      "lon": 140.1478761
    },
    {
      "name": "やまや能代店",
      "address": "秋田県能代市下野24-1",
      "lat": 40.1879014,
      "lon": 140.0401367
    },
    {
      "name": "やまや天童店",
      "address": "山形県天童市東久野本２丁目１番８号",
      "lat": 38.369942,
      "lon": 140.378172
    },
    {
      "name": "やまや桜田店",
      "address": "山形県山形市桜田西2-7-2",
      "lat": 38.21929980000001,
      "lon": 140.3157023
    },
    {
      "name": "やまや瀬波店",
      "address": "山形県山形市瀬波三丁目７－４０",
      "lat": 38.2834809,
      "lon": 140.3081312
    },
    {
      "name": "やまや篭田店",
      "address": "山形県山形市篭田3-9-1",
      "lat": 38.2369361,
      "lon": 140.3181259
    },
    {
      "name": "やまや大野目店",
      "address": "山形県山形市芳野５４番地",
      "lat": 38.2791547,
      "lon": 140.3555228
    },
    {
      "name": "やまや鉄砲町店",
      "address": "山形県山形市鉄砲町2-20-27",
      "lat": 38.2348508,
      "lon": 140.3333636
    },
    {
      "name": "やまや馬見ケ崎店",
      "address": "山形県山形市馬見ケ崎1-2-17",
      "lat": 38.2791651,
      "lon": 140.3320694
    },
    {
      "name": "やまや新庄店",
      "address": "山形県新庄市大字鳥越490",
      "lat": 38.7483813,
      "lon": 140.3100216
    },
    {
      "name": "やまやさくらんぼ東根店",
      "address": "山形県東根市さくらんぼ駅前2-2-20",
      "lat": 38.4299139,
      "lon": 140.383891
    },
    {
      "name": "やまや米沢店",
      "address": "山形県米沢市徳町124-1",
      "lat": 37.9229871,
      "lon": 140.0961619
    },
    {
      "name": "やまや酒田店",
      "address": "山形県酒田市泉町201",
      "lat": 38.935948,
      "lon": 139.8483155
    },
    {
      "name": "やまや鶴岡南店",
      "address": "山形県鶴岡市ほなみ町９番１５号",
      "lat": 38.716475,
      "lon": 139.8464491
    },
    {
      "name": "やまや鶴岡大塚店",
      "address": "山形県鶴岡市大塚町12-18",
      "lat": 38.7356108,
      "lon": 139.8088618
    },
    {
      "name": "やまやいわき平店",
      "address": "福島県いわき市平正内町116-1",
      "lat": 37.05305269999999,
      "lon": 140.9009739
    },
    {
      "name": "やまや門田店",
      "address": "福島県会津若松市北青木5-26",
      "lat": 37.47914,
      "lon": 139.9354002
    },
    {
      "name": "やまや白河店",
      "address": "福島県白河市字新高山２８番地２",
      "lat": 37.1169912,
      "lon": 140.1936675
    },
    {
      "name": "やまや相馬小泉店",
      "address": "福島県相馬市小泉字根岸74-1",
      "lat": 37.8108015,
      "lon": 140.9247768
    },
    {
      "name": "やまや丸子店",
      "address": "福島県福島市丸子字漆方4-1",
      "lat": 37.7859776,
      "lon": 140.4830237
    },
    {
      "name": "やまや福島西店",
      "address": "福島県福島市東中央3-47",
      "lat": 37.7624741,
      "lon": 140.4359564
    },
    {
      "name": "やまや飯坂店",
      "address": "福島県福島市飯坂町平野字道添２０番地４",
      "lat": 37.8169714,
      "lon": 140.4460096
    },
    {
      "name": "やまや福島南店",
      "address": "福島県福島市鳥谷野字宮畑６２",
      "lat": 37.7334197,
      "lon": 140.4659761
    },
    {
      "name": "やまや荒井店",
      "address": "福島県郡山市安積荒井1丁目145",
      "lat": 37.3688644,
      "lon": 140.3553792
    },
    {
      "name": "やまや郡山朝日店",
      "address": "福島県郡山市朝日3-7-38",
      "lat": 37.4075735,
      "lon": 140.3587713
    },
    {
      "name": "やまやつくば学園店",
      "address": "茨城県つくば市東新井18-9",
      "lat": 36.0776888,
      "lon": 140.1121121
    },
    {
      "name": "やまや勝田店",
      "address": "茨城県ひたちなか市笹野町3-3-23",
      "lat": 36.3968361,
      "lon": 140.5473029
    },
    {
      "name": "やまや那珂湊店",
      "address": "茨城県ひたちなか市釈迦町17-10",
      "lat": 36.3461545,
      "lon": 140.5844711
    },
    {
      "name": "やまや取手店",
      "address": "茨城県取手市井野台三丁目６番３５号",
      "lat": 35.9052742,
      "lon": 140.0666878
    },
    {
      "name": "やまや古河店",
      "address": "茨城県古河市東4-17-24",
      "lat": 36.197125,
      "lon": 139.7188086
    },
    {
      "name": "やまや土浦荒川沖店",
      "address": "茨城県土浦市中村南四丁目１１番１３号",
      "lat": 36.039345,
      "lon": 140.1637068
    },
    {
      "name": "やまや高津店",
      "address": "茨城県土浦市中高津一丁目22番7号",
      "lat": 36.0645048,
      "lon": 140.188018
    },
    {
      "name": "やまや南高野店",
      "address": "茨城県日立市南高野町1-7-16",
      "lat": 36.5037752,
      "lon": 140.6049599
    },
    {
      "name": "やまや東大沼店",
      "address": "茨城県日立市東大沼町3-28-8",
      "lat": 36.5268141,
      "lon": 140.6239872
    },
    {
      "name": "やまや日立滑川店",
      "address": "茨城県日立市滑川町2-8-3",
      "lat": 36.6101269,
      "lon": 140.6618794
    },
    {
      "name": "やまや鮎川店",
      "address": "茨城県日立市鮎川町2-6-30",
      "lat": 36.5677623,
      "lon": 140.6377165
    },
    {
      "name": "やまや千波店",
      "address": "茨城県水戸市千波町字北葉山1864-1",
      "lat": 36.3540313,
      "lon": 140.4487746
    },
    {
      "name": "やまや石川町店",
      "address": "茨城県水戸市石川1-3907-11",
      "lat": 36.3940668,
      "lon": 140.4276583
    },
    {
      "name": "やまや牛久店",
      "address": "茨城県牛久市神谷6-2-7",
      "lat": 35.9677891,
      "lon": 140.151147
    },
    {
      "name": "やまや佐野店",
      "address": "栃木県佐野市高萩町1330番地3",
      "lat": 36.299176,
      "lon": 139.6026791
    },
    {
      "name": "やまや戸祭元町店",
      "address": "栃木県宇都宮市下戸祭２丁目１－１５",
      "lat": 36.5705598,
      "lon": 139.8788895
    },
    {
      "name": "やまや今泉店",
      "address": "栃木県宇都宮市元今泉３丁目４－１３",
      "lat": 36.5629777,
      "lon": 139.907974
    },
    {
      "name": "やまや雀宮店",
      "address": "栃木県宇都宮市雀の宮4-3-13",
      "lat": 36.4938994,
      "lon": 139.8718161
    },
    {
      "name": "やまや鶴田店",
      "address": "栃木県宇都宮市鶴田町228-1",
      "lat": 36.549519,
      "lon": 139.8576735
    },
    {
      "name": "やまや小山羽川店",
      "address": "栃木県小山市羽川503-3",
      "lat": 36.3667988,
      "lon": 139.8356203
    },
    {
      "name": "やまや小山城南店",
      "address": "栃木県小山市西城南5-2-22",
      "lat": 36.29564070000001,
      "lon": 139.7983921
    },
    {
      "name": "やまや小山駅東店",
      "address": "栃木県小山市駅東通り２丁目２６－１４",
      "lat": 36.3121256,
      "lon": 139.8107838
    },
    {
      "name": "やまや新栃木店",
      "address": "栃木県栃木市昭和町2-20",
      "lat": 36.3899934,
      "lon": 139.735269
    },
    {
      "name": "やまや足利八幡店",
      "address": "栃木県足利市八幡町1丁目12-5",
      "lat": 36.3212181,
      "lon": 139.4428354
    },
    {
      "name": "やまや西那須野店",
      "address": "栃木県那須塩原市西三島2-156-11",
      "lat": 36.8886648,
      "lon": 139.9731051
    },
    {
      "name": "やまや黒磯店",
      "address": "栃木県那須塩原市豊住町80-26",
      "lat": 36.9760138,
      "lon": 140.0405244
    },
    {
      "name": "やまや大間々店",
      "address": "群馬県みどり市大間々町大間々18-3",
      "lat": 36.4156347,
      "lon": 139.2866116
    },
    {
      "name": "やまやフォリオ安堀店",
      "address": "群馬県伊勢崎市安堀町1863番地1フォリオ安堀内",
      "lat": 36.3383949,
      "lon": 139.1859065
    },
    {
      "name": "やまや伊勢崎連取店",
      "address": "群馬県伊勢崎市連取町3283-1",
      "lat": 36.3131134,
      "lon": 139.171976
    },
    {
      "name": "やまや前橋三俣店",
      "address": "群馬県前橋市三俣町1-19-2",
      "lat": 36.3955229,
      "lon": 139.0836938
    },
    {
      "name": "やまや総社店",
      "address": "群馬県前橋市問屋町2-16-18",
      "lat": 36.3990505,
      "lon": 139.0391271
    },
    {
      "name": "やまや竜舞店",
      "address": "群馬県太田市内ヶ島町2003",
      "lat": 36.282262,
      "lon": 139.4027313
    },
    {
      "name": "やまや太田高林店",
      "address": "群馬県太田市高林南町824-1",
      "lat": 36.2610576,
      "lon": 139.3714537
    },
    {
      "name": "やまや渋川店",
      "address": "群馬県渋川市行幸田315-1",
      "lat": 36.4734841,
      "lon": 138.9997579
    },
    {
      "name": "やまや高崎店",
      "address": "群馬県高崎市上中居町327番地4",
      "lat": 36.3176862,
      "lon": 139.0269803
    },
    {
      "name": "やまや与野店",
      "address": "埼玉県さいたま市中央区八王子１丁目７番１号",
      "lat": 35.8859606,
      "lon": 139.6136021
    },
    {
      "name": "やまや北浦和店",
      "address": "埼玉県さいたま市中央区新中里2-1-3",
      "lat": 35.8705902,
      "lon": 139.6351355
    },
    {
      "name": "やまや大宮北店",
      "address": "埼玉県さいたま市北区別所町２６０番地１号_",
      "lat": 35.95550110000001,
      "lon": 139.5937174
    },
    {
      "name": "やまや岩槻店",
      "address": "埼玉県さいたま市岩槻区大字南平野4-5-15",
      "lat": 35.9539401,
      "lon": 139.7174747
    },
    {
      "name": "やまや大宮大和田店",
      "address": "埼玉県さいたま市見沼区大和田町1-1169-1",
      "lat": 35.9221288,
      "lon": 139.6539645
    },
    {
      "name": "やまや井戸木店",
      "address": "埼玉県上尾市井戸木2-21-3",
      "lat": 35.9924008,
      "lon": 139.5630233
    },
    {
      "name": "やまや上尾店",
      "address": "埼玉県上尾市本町６丁目４番５号",
      "lat": 35.984446,
      "lon": 139.590764
    },
    {
      "name": "やまや久喜店",
      "address": "埼玉県久喜市青葉５丁目２番１号",
      "lat": 36.0676031,
      "lon": 139.7003269
    },
    {
      "name": "やまや入間店",
      "address": "埼玉県入間市扇台三丁目5番5号",
      "lat": 35.8297718,
      "lon": 139.3890943
    },
    {
      "name": "やまや三芳店",
      "address": "埼玉県入間郡三芳町大字北永井６７０番",
      "lat": 35.8327648,
      "lon": 139.5178102
    },
    {
      "name": "やまや青木店",
      "address": "埼玉県川口市中青木２丁目２３番２３号",
      "lat": 35.8126788,
      "lon": 139.7222036
    },
    {
      "name": "やまや的場店",
      "address": "埼玉県川越市的場新町13-3",
      "lat": 35.9180708,
      "lon": 139.4297088
    },
    {
      "name": "やまや志木中宗岡店",
      "address": "埼玉県志木市中宗岡1-9-37",
      "lat": 35.8384067,
      "lon": 139.5860352
    },
    {
      "name": "やまや戸田店",
      "address": "埼玉県戸田市上戸田一丁目３番１１号サンイルミ１階",
      "lat": 35.8167474,
      "lon": 139.6809847
    },
    {
      "name": "やまや所沢店",
      "address": "埼玉県所沢市上新井5丁目49-7",
      "lat": 35.798589,
      "lon": 139.4510215
    },
    {
      "name": "やまや春日部店",
      "address": "埼玉県春日部市谷原3-7-1",
      "lat": 35.9714693,
      "lon": 139.7515266
    },
    {
      "name": "やまや本庄店",
      "address": "埼玉県本庄市五十子1-3-5",
      "lat": 36.227916,
      "lon": 139.1936331
    },
    {
      "name": "やまや高坂駅前店",
      "address": "埼玉県東松山市元宿二丁目２２番７",
      "lat": 36.0026614,
      "lon": 139.3936805
    },
    {
      "name": "やまや熊谷柿沼店",
      "address": "埼玉県熊谷市柿沼636-4",
      "lat": 36.163764,
      "lon": 139.383419
    },
    {
      "name": "やまや草加柳島店",
      "address": "埼玉県草加市柳島町475-1",
      "lat": 35.8208482,
      "lon": 139.7853488
    },
    {
      "name": "やまや鴻巣吹上店",
      "address": "埼玉県鴻巣市新宿2-46",
      "lat": 36.1127582,
      "lon": 139.4414754
    },
    {
      "name": "やまや青葉の森公園店",
      "address": "千葉県千葉市中央区青葉町1265 番地3",
      "lat": 35.5976095,
      "lon": 140.135987
    },
    {
      "name": "やまや桜木町店",
      "address": "千葉県千葉市若葉区桜木北3-17-9",
      "lat": 35.6378319,
      "lon": 140.1611577
    },
    {
      "name": "やまや四街道店",
      "address": "千葉県四街道市四街道1560-1",
      "lat": 35.6609108,
      "lon": 140.1581693
    },
    {
      "name": "やまや市原店",
      "address": "千葉県市原市辰巳台東1-2",
      "lat": 35.5185392,
      "lon": 140.1517219
    },
    {
      "name": "やまや成田はなのき台店",
      "address": "千葉県成田市はなのき台2-25-1",
      "lat": 35.7781895,
      "lon": 140.2855782
    },
    {
      "name": "やまや成田土屋店",
      "address": "千葉県成田市土屋1304-1",
      "lat": 35.7944053,
      "lon": 140.3147694
    },
    {
      "name": "やまや清見台店",
      "address": "千葉県木更津市清見台南4-4-6",
      "lat": 35.3812875,
      "lon": 139.9591131
    },
    {
      "name": "やまや松戸栄町店",
      "address": "千葉県松戸市栄町西4-1193",
      "lat": 35.8113368,
      "lon": 139.8949475
    },
    {
      "name": "やまや松ヶ崎店",
      "address": "千葉県柏市松ヶ崎大山台１丁目６番地イオンタウン松ヶ崎ＳＣ",
      "lat": 35.879273,
      "lon": 139.9674156
    },
    {
      "name": "やまや豊四季店",
      "address": "千葉県柏市豊四季285",
      "lat": 35.8595777,
      "lon": 139.9486549
    },
    {
      "name": "やまや南柏店",
      "address": "千葉県柏市青葉台２－１－２",
      "lat": 35.814411,
      "lon": 139.9598429
    },
    {
      "name": "やまや白井店",
      "address": "千葉県白井市富士５２番５９",
      "lat": 35.768356,
      "lon": 140.0234534
    },
    {
      "name": "やまや東船橋店",
      "address": "千葉県船橋市前原西1-4-1",
      "lat": 35.6963949,
      "lon": 140.0094734
    },
    {
      "name": "やまや茂原店",
      "address": "千葉県茂原市高師台2丁目1-1",
      "lat": 35.4351473,
      "lon": 140.2896253
    },
    {
      "name": "やまや野田みずき店",
      "address": "千葉県野田市みずき1-15-5",
      "lat": 35.9247756,
      "lon": 139.8842605
    },
    {
      "name": "やまや銚子店",
      "address": "千葉県銚子市松本町二丁目９０３番地１",
      "lat": 35.7330529,
      "lon": 140.8176149
    },
    {
      "name": "やまや銀座店",
      "address": "東京都中央区銀座七丁目12番18号第一銀座ビル1階",
      "lat": 35.6684258,
      "lon": 139.7641059
    },
    {
      "name": "やまや北野台店",
      "address": "東京都八王子市打越町930-6",
      "lat": 35.6336694,
      "lon": 139.3526949
    },
    {
      "name": "やまや麹町半蔵門店",
      "address": "東京都千代田区麹町１－６－２アーバンネット麹町ビル１階",
      "lat": 35.68448780000001,
      "lon": 139.7424103
    },
    {
      "name": "やまや大森店",
      "address": "東京都大田区大森北二丁目1番1号アーバンネット大森ビル1Ｆ",
      "lat": 35.5866478,
      "lon": 139.7321112
    },
    {
      "name": "やまや新宿店",
      "address": "東京都新宿区西新宿３－２－７KDX新宿ビル1F",
      "lat": 35.6866808,
      "lon": 139.6937978
    },
    {
      "name": "やまや東大和店",
      "address": "東京都東大和市仲原4-22-10",
      "lat": 35.7427569,
      "lon": 139.4355706
    },
    {
      "name": "やまや武蔵村山残堀店",
      "address": "東京都武蔵村山市残堀一丁目76番地17",
      "lat": 35.748011,
      "lon": 139.3757071
    },
    {
      "name": "やまや亀戸店",
      "address": "東京都江東区亀戸2丁目25-14京阪亀戸ビル1階",
      "lat": 35.6986726,
      "lon": 139.8238092
    },
    {
      "name": "やまや道玄坂上店",
      "address": "東京都渋谷区円山町3-6E・スペースタワー1F",
      "lat": 35.6574935,
      "lon": 139.6955514
    },
    {
      "name": "やまや浜松町大門店",
      "address": "東京都港区芝大門1-4-8浜松町清和ビル1F",
      "lat": 35.658078,
      "lon": 139.7545467
    },
    {
      "name": "やまや赤坂店",
      "address": "東京都港区赤坂２丁目１４番３３号赤坂三田ビル　藤会館",
      "lat": 35.6726854,
      "lon": 139.7376273
    },
    {
      "name": "やまや青山１丁目店",
      "address": "東京都港区赤坂８－４－１４青山タワープレイス１Ｆ",
      "lat": 35.67269,
      "lon": 139.7263275
    },
    {
      "name": "やまや碑文谷店",
      "address": "東京都目黒区南二丁目８番１０号パラッツオ碑文谷１階",
      "lat": 35.6140187,
      "lon": 139.6862319
    },
    {
      "name": "やまや立川若葉町店",
      "address": "東京都立川市若葉町3-62-5",
      "lat": 35.7184568,
      "lon": 139.4439805
    },
    {
      "name": "やまや光が丘店",
      "address": "東京都練馬区高松五丁目１１番２６号光が丘ＭＫビル１階",
      "lat": 35.7581887,
      "lon": 139.6216912
    },
    {
      "name": "やまや池袋東店",
      "address": "東京都豊島区東池袋一丁目４３－６",
      "lat": 35.7328894,
      "lon": 139.7135539
    },
    {
      "name": "やまや青梅今寺店",
      "address": "東京都青梅市藤橋2丁目560-6",
      "lat": 35.7981889,
      "lon": 139.3012953
    },
    {
      "name": "やまや洋光台店",
      "address": "神奈川県横浜市磯子区洋光台６－３１－１",
      "lat": 35.3710018,
      "lon": 139.5998636
    },
    {
      "name": "やまや青葉台店",
      "address": "神奈川県横浜市青葉区青葉台2丁目8番20号パルテ青葉台１階",
      "lat": 35.5433976,
      "lon": 139.5149513
    },
    {
      "name": "やまや上越店",
      "address": "新潟県上越市富岡３４５７",
      "lat": 37.1538321,
      "lon": 138.2584289
    },
    {
      "name": "やまや五泉店",
      "address": "新潟県五泉市東本町2丁目10-31",
      "lat": 37.7428753,
      "lon": 139.1807773
    },
    {
      "name": "やまや紫竹山店",
      "address": "新潟県新潟市中央区紫竹山１－２－２０",
      "lat": 37.9010186,
      "lon": 139.0645648
    },
    {
      "name": "やまや海老ヶ瀬店",
      "address": "新潟県新潟市東区大形本町5-18-23",
      "lat": 37.9228489,
      "lon": 139.1232546
    },
    {
      "name": "やまや新潟河渡店",
      "address": "新潟県新潟市東区河渡庚135番地1マーケットシティ河渡 内",
      "lat": 37.9313033,
      "lon": 139.1005531
    },
    {
      "name": "やまや新潟大学前店",
      "address": "新潟県新潟市西区坂井砂山2-16-18",
      "lat": 37.8728553,
      "lon": 138.958327
    },
    {
      "name": "やまや新潟青山店",
      "address": "新潟県新潟市西区松美台１－１２",
      "lat": 37.8954056,
      "lon": 138.9941737
    },
    {
      "name": "やまや新発田店",
      "address": "新潟県新発田市新栄町3-2-12",
      "lat": 37.9540775,
      "lon": 139.2939036
    },
    {
      "name": "やまや柏崎店",
      "address": "新潟県柏崎市松美1-11-35",
      "lat": 37.3744697,
      "lon": 138.578451
    },
    {
      "name": "やまや燕店",
      "address": "新潟県燕市井土巻2-137",
      "lat": 37.65348760000001,
      "lon": 138.9307947
    },
    {
      "name": "やまや左岸バイパス店",
      "address": "新潟県長岡市西津町3828-1",
      "lat": 37.4519852,
      "lon": 138.8124543
    },
    {
      "name": "やまや大久保店",
      "address": "富山県富山市上大久保5区1326",
      "lat": 36.5970434,
      "lon": 137.203254
    },
    {
      "name": "やまや中川原店",
      "address": "富山県富山市中川原２５４－２",
      "lat": 36.6739343,
      "lon": 137.2453929
    },
    {
      "name": "やまや堀川店",
      "address": "富山県富山市堀川町386-2",
      "lat": 36.66464879999999,
      "lon": 137.2148254
    },
    {
      "name": "やまや掛尾店",
      "address": "富山県富山市掛尾栄町３－７",
      "lat": 36.6672595,
      "lon": 137.2075099
    },
    {
      "name": "やまや北の森店",
      "address": "富山県富山市森4-735",
      "lat": 36.7456813,
      "lon": 137.2335611
    },
    {
      "name": "やまや上飯野店",
      "address": "富山県富山市鍋田17-15",
      "lat": 36.7148813,
      "lon": 137.2453958
    },
    {
      "name": "やまや小杉店",
      "address": "富山県射水市三ケ2450-1",
      "lat": 36.7157342,
      "lon": 137.0888636
    },
    {
      "name": "やまや氷見店",
      "address": "富山県氷見市窪１４０番１ イオンタウン氷見ＳＣ",
      "lat": 36.8401725,
      "lon": 136.9848222
    },
    {
      "name": "やまや砺波店",
      "address": "富山県砺波市永福町5番16号",
      "lat": 36.6392617,
      "lon": 136.9463661
    },
    {
      "name": "やまや高岡店",
      "address": "富山県高岡市赤祖父３８０番地",
      "lat": 36.7313616,
      "lon": 137.0206219
    },
    {
      "name": "やまや七尾店",
      "address": "石川県七尾市藤野町ロ部３８番ナッピーモール",
      "lat": 37.0302543,
      "lon": 136.9679292
    },
    {
      "name": "やまや小松店",
      "address": "石川県小松市平面町ア６９",
      "lat": 36.4177863,
      "lon": 136.4709728
    },
    {
      "name": "やまや松任店",
      "address": "石川県白山市幸明町300-3",
      "lat": 36.5175983,
      "lon": 136.576397
    },
    {
      "name": "やまや野々市店",
      "address": "石川県野々市市矢作3-26",
      "lat": 36.5231725,
      "lon": 136.6126238
    },
    {
      "name": "やまや杜の里店",
      "address": "石川県金沢市もりの里1-121",
      "lat": 36.5531494,
      "lon": 136.6907426
    },
    {
      "name": "やまや金沢駅西店",
      "address": "石川県金沢市二ツ屋町10-41",
      "lat": 36.5887698,
      "lon": 136.6289104
    },
    {
      "name": "やまやラパーク金沢店",
      "address": "石川県金沢市西泉４丁目１５－１",
      "lat": 36.5500222,
      "lon": 136.6324985
    },
    {
      "name": "やまや春江店",
      "address": "福井県坂井市春江町江留上昭和１５０－１",
      "lat": 36.1218559,
      "lon": 136.2196972
    },
    {
      "name": "やまや下石田店",
      "address": "山梨県甲府市下石田2-17-26",
      "lat": 35.647681,
      "lon": 138.5511203
    },
    {
      "name": "やまや長森店",
      "address": "岐阜県岐阜市野一色4-1-5",
      "lat": 35.41308230000001,
      "lon": 136.7979488
    },
    {
      "name": "やまや佐鳴台店",
      "address": "静岡県浜松市中央区佐鳴台3-54-53",
      "lat": 34.7079613,
      "lon": 137.6942983
    },
    {
      "name": "やまや篠ヶ瀬店",
      "address": "静岡県浜松市中央区篠ケ瀬町2000",
      "lat": 34.724286,
      "lon": 137.7780091
    },
    {
      "name": "やまや藤が丘店",
      "address": "愛知県名古屋市名東区藤が丘１２８番地",
      "lat": 35.1837139,
      "lon": 137.0211476
    },
    {
      "name": "やまや小牧店",
      "address": "愛知県小牧市郷中1-38",
      "lat": 35.2804802,
      "lon": 136.9194771
    },
    {
      "name": "やまや尾張旭店",
      "address": "愛知県尾張旭市東本地ヶ原町1-1",
      "lat": 35.1981218,
      "lon": 137.0400658
    },
    {
      "name": "やまや春日井宮町店",
      "address": "愛知県春日井市宮町字中島１番地１",
      "lat": 35.2517928,
      "lon": 136.9441257
    },
    {
      "name": "やまや豊川店",
      "address": "愛知県豊川市若鳩町30-1",
      "lat": 34.8269953,
      "lon": 137.383316
    },
    {
      "name": "やまや新桜町店",
      "address": "愛知県豊川市西香ノ木２－２６－１",
      "lat": 34.8124552,
      "lon": 137.3696228
    },
    {
      "name": "やまや多米店",
      "address": "愛知県豊橋市多米西町２－２８－１１",
      "lat": 34.7624088,
      "lon": 137.4408427
    },
    {
      "name": "やまや柱店",
      "address": "愛知県豊橋市柱八番町１１４－１",
      "lat": 34.7422678,
      "lon": 137.3782344
    },
    {
      "name": "やまや豊田大林店",
      "address": "愛知県豊田市大林町15-7-11",
      "lat": 35.0473994,
      "lon": 137.1478804
    },
    {
      "name": "やまや松本店",
      "address": "三重県四日市市西松本町１番８号",
      "lat": 34.9710509,
      "lon": 136.5870231
    },
    {
      "name": "やまや久居店",
      "address": "三重県津市久居相川町２１０８－１",
      "lat": 34.6845468,
      "lon": 136.4851716
    },
    {
      "name": "やまや西大津店",
      "address": "滋賀県大津市松山町9-5",
      "lat": 35.0281973,
      "lon": 135.8632596
    },
    {
      "name": "やまや洛北阪急スクエア店",
      "address": "京都市左京区高野西開町３６番地洛北阪急スクエアB1F",
      "lat": 35.0411191,
      "lon": 135.7790151
    },
    {
      "name": "やまや御池高瀬川店",
      "address": "京都府京都市中京区一之船入町537-17イーグルコート御池高瀬川1F",
      "lat": 35.0111944,
      "lon": 135.7703163
    },
    {
      "name": "やまや烏丸御池店",
      "address": "京都府京都市中京区烏丸通三条上る場之町592番地 メディナ烏丸御池1F",
      "lat": 35.0096136,
      "lon": 135.7594455
    },
    {
      "name": "やまや千本丸太町店",
      "address": "京都府京都市中京区聚楽廻東町10番地",
      "lat": 35.0173345,
      "lon": 135.7424251
    },
    {
      "name": "やまや梅津店",
      "address": "京都府京都市右京区梅津段町38-1",
      "lat": 35.004079,
      "lon": 135.7077911
    },
    {
      "name": "やまや花園店",
      "address": "京都府京都市右京区花園木辻南町2-3",
      "lat": 35.01939309999999,
      "lon": 135.7228686
    },
    {
      "name": "やまや山科店",
      "address": "京都府京都市山科区竹鼻四丁野町35-3",
      "lat": 34.986699,
      "lon": 135.8157257
    },
    {
      "name": "やまや松井山手店",
      "address": "京都府八幡市欽明台西14-3",
      "lat": 34.8340839,
      "lon": 135.7191823
    },
    {
      "name": "やまや六地蔵店",
      "address": "京都府宇治市六地蔵奈良町21-6",
      "lat": 34.9354661,
      "lon": 135.7985148
    },
    {
      "name": "やまや長堀橋店",
      "address": "大阪市中央区南船場二丁目４－８",
      "lat": 34.6754762,
      "lon": 135.505951
    },
    {
      "name": "やまや河内磐船店",
      "address": "大阪府交野市森北1-3-13",
      "lat": 34.7791089,
      "lon": 135.6846613
    },
    {
      "name": "やまや佐井寺店",
      "address": "大阪府吹田市佐井寺3-21-1",
      "lat": 34.7859741,
      "lon": 135.5157493
    },
    {
      "name": "やまや南吹田店",
      "address": "大阪府吹田市南吹田3-4-32",
      "lat": 34.7527772,
      "lon": 135.5068142
    },
    {
      "name": "やまや吹田千里丘店",
      "address": "大阪府吹田市山田南22-6",
      "lat": 34.7882009,
      "lon": 135.537014
    },
    {
      "name": "やまや和泉中央店",
      "address": "大阪府和泉市いぶき野5-5-10",
      "lat": 34.4592323,
      "lon": 135.460372
    },
    {
      "name": "やまや大阪物流センターオープン予定",
      "address": "大阪府大阪市住之江区南港東8-4-47プロロジスパーク大阪5-4F",
      "lat": 34.6342834,
      "lon": 135.4305363
    },
    {
      "name": "やまや堂島プラザ店",
      "address": "大阪府大阪市北区堂島一丁目５番３０号堂島プラザビル１階",
      "lat": 34.696294,
      "lon": 135.4964679
    },
    {
      "name": "やまや城東東中浜店",
      "address": "大阪府大阪市城東区東中浜5-7-12",
      "lat": 34.6850489,
      "lon": 135.5511234
    },
    {
      "name": "やまや大桐店",
      "address": "大阪府大阪市東淀川区大隅1-2-1",
      "lat": 34.7474908,
      "lon": 135.5397676
    },
    {
      "name": "やまや東淀川菅原店",
      "address": "大阪府大阪市東淀川区菅原4-10-1",
      "lat": 34.7408712,
      "lon": 135.5268244
    },
    {
      "name": "やまやＯ－ＣＡＴ店",
      "address": "大阪府大阪市浪速区湊町１－４－１O-CATビル　O-CATモール内1Ｆ",
      "lat": 34.6664392,
      "lon": 135.4954845
    },
    {
      "name": "やまや淀川三国本町店",
      "address": "大阪府大阪市淀川区三国本町1-12-44",
      "lat": 34.73182,
      "lon": 135.4851546
    },
    {
      "name": "やまや野田阪神店",
      "address": "大阪府大阪市福島区吉野1-9-9",
      "lat": 34.6938432,
      "lon": 135.4786554
    },
    {
      "name": "やまや南津守店",
      "address": "大阪府大阪市西成区南津守3-6-23",
      "lat": 34.6319765,
      "lon": 135.4836599
    },
    {
      "name": "やまや歌島橋店",
      "address": "大阪府大阪市西淀川区千舟1-3-18",
      "lat": 34.7097759,
      "lon": 135.4543365
    },
    {
      "name": "やまや都島本通店",
      "address": "大阪府大阪市都島区都島本通1-2-25",
      "lat": 34.7083922,
      "lon": 135.5208418
    },
    {
      "name": "やまや帝塚山店",
      "address": "大阪府大阪市阿倍野区帝塚山1-9-11",
      "lat": 34.6244902,
      "lon": 135.5016891
    },
    {
      "name": "やまや阪南町店",
      "address": "大阪府大阪市阿倍野区阪南町2-23-28",
      "lat": 34.6307487,
      "lon": 135.5161835
    },
    {
      "name": "やまや岸和田春木店",
      "address": "大阪府岸和田市春木若松町19-24",
      "lat": 34.4786509,
      "lon": 135.390881
    },
    {
      "name": "やまや鳥飼店",
      "address": "大阪府摂津市鳥飼上1-15-4",
      "lat": 34.7831969,
      "lon": 135.5956165
    },
    {
      "name": "やまや鴻池新田店",
      "address": "大阪府東大阪市東鴻池町1-10-4",
      "lat": 34.6972286,
      "lon": 135.6123662
    },
    {
      "name": "やまや若江岩田店",
      "address": "大阪府東大阪市菱屋東2-7-23",
      "lat": 34.6697204,
      "lon": 135.6093386
    },
    {
      "name": "やまや枚方公園店",
      "address": "大阪府枚方市伊加賀南町9-13",
      "lat": 34.8073084,
      "lon": 135.6412823
    },
    {
      "name": "やまやロイヤル枚方店",
      "address": "大阪府枚方市春日西町2-2-1",
      "lat": 34.8045759,
      "lon": 135.6781151
    },
    {
      "name": "やまやくずは船橋店",
      "address": "大阪府枚方市東船橋1-2-2",
      "lat": 34.8552087,
      "lon": 135.6835439
    },
    {
      "name": "やまや東香里店",
      "address": "大阪府枚方市東香里南町52-41",
      "lat": 34.7751814,
      "lon": 135.6545083
    },
    {
      "name": "やまや阪急石橋店",
      "address": "大阪府池田市石橋1-1-6",
      "lat": 34.8089974,
      "lon": 135.4445632
    },
    {
      "name": "やまや池田店",
      "address": "大阪府池田市神田2-7-30",
      "lat": 34.8097982,
      "lon": 135.4264274
    },
    {
      "name": "やまや牧落店",
      "address": "大阪府箕面市桜1-1-1",
      "lat": 34.8257518,
      "lon": 135.4659684
    },
    {
      "name": "やまや箕面外院店",
      "address": "大阪府箕面市粟生外院5-4-8",
      "lat": 34.8438354,
      "lon": 135.5046818
    },
    {
      "name": "やまや箕面船場阪大前店",
      "address": "大阪府箕面市船場東3-5-39",
      "lat": 34.8228278,
      "lon": 135.4922033
    },
    {
      "name": "やまや茨木水尾店",
      "address": "大阪府茨木市水尾1-16-4",
      "lat": 34.8096412,
      "lon": 135.5760496
    },
    {
      "name": "やまやJR茨木駅前店",
      "address": "大阪府茨木市西中条町1-28",
      "lat": 34.8147689,
      "lon": 135.5621631
    },
    {
      "name": "やまや小曽根店",
      "address": "大阪府豊中市小曽根1-21-7",
      "lat": 34.7599932,
      "lon": 135.4839017
    },
    {
      "name": "やまや豊中少路店",
      "address": "大阪府豊中市少路1-13-25",
      "lat": 34.8064869,
      "lon": 135.4766289
    },
    {
      "name": "やまや服部店",
      "address": "大阪府豊中市服部西町2-8-4",
      "lat": 34.7622313,
      "lon": 135.4726788
    },
    {
      "name": "やまや豊中穂積店",
      "address": "大阪府豊中市穂積2-7-20",
      "lat": 34.7560247,
      "lon": 135.4672166
    },
    {
      "name": "やまや大阪空港店",
      "address": "大阪府豊中市箕輪2-14-20",
      "lat": 34.788009,
      "lon": 135.449057
    },
    {
      "name": "やまや豊中西泉丘店",
      "address": "大阪府豊中市西泉丘3-5-6",
      "lat": 34.7805651,
      "lon": 135.4896898
    },
    {
      "name": "やまや下田部店",
      "address": "大阪府高槻市下田部町1-32-3",
      "lat": 34.8336258,
      "lon": 135.619751
    },
    {
      "name": "やまや高槻南平台店",
      "address": "大阪府高槻市南平台3-28-11",
      "lat": 34.8564323,
      "lon": 135.5868211
    },
    {
      "name": "やまや高槻奈佐原店",
      "address": "大阪府高槻市奈佐原2-11-17",
      "lat": 34.8609019,
      "lon": 135.5802712
    },
    {
      "name": "やまや高槻浦堂店",
      "address": "大阪府高槻市浦堂2-29-1",
      "lat": 34.863465,
      "lon": 135.6009942
    },
    {
      "name": "やまや高槻須賀店",
      "address": "大阪府高槻市須賀町8-1",
      "lat": 34.8384463,
      "lon": 135.6366861
    },
    {
      "name": "やまや三田ウッディタウン店",
      "address": "兵庫県三田市すずかけ台3-2",
      "lat": 34.9041846,
      "lon": 135.1900755
    },
    {
      "name": "やまや三田対中店",
      "address": "兵庫県三田市対中町3-8",
      "lat": 34.88170059999999,
      "lon": 135.2309841
    },
    {
      "name": "やまや伊丹瑞穂店",
      "address": "兵庫県伊丹市瑞穂町3-10",
      "lat": 34.7907435,
      "lon": 135.4039529
    },
    {
      "name": "やまや姫路勝原店",
      "address": "兵庫県姫路市勝原区熊見10-1",
      "lat": 34.80712820000001,
      "lon": 134.614623
    },
    {
      "name": "やまや宝塚中筋店",
      "address": "兵庫県宝塚市中筋7-92-4",
      "lat": 34.8127977,
      "lon": 135.3806057
    },
    {
      "name": "やまや宝塚安倉店",
      "address": "兵庫県宝塚市安倉南1-7-1",
      "lat": 34.79802919999999,
      "lon": 135.3750769
    },
    {
      "name": "やまや宝塚米谷店",
      "address": "兵庫県宝塚市米谷1-36-3",
      "lat": 34.8114344,
      "lon": 135.363486
    },
    {
      "name": "やまや宝塚逆瀬川店",
      "address": "兵庫県宝塚市逆瀬川1-16-28",
      "lat": 34.8018468,
      "lon": 135.3533773
    },
    {
      "name": "やまや富松町店",
      "address": "兵庫県尼崎市富松町3-4-1",
      "lat": 34.757754,
      "lon": 135.3999211
    },
    {
      "name": "やまや尼崎杭瀬店",
      "address": "兵庫県尼崎市杭瀬北新町4-11-10",
      "lat": 34.7198555,
      "lon": 135.4295496
    },
    {
      "name": "やまや尼崎水堂店",
      "address": "兵庫県尼崎市水堂町2-8-11",
      "lat": 34.7400724,
      "lon": 135.3897804
    },
    {
      "name": "やまや尼崎園田店",
      "address": "兵庫県尼崎市田能1-14-20",
      "lat": 34.763928,
      "lon": 135.4414785
    },
    {
      "name": "やまや尼崎額田店",
      "address": "兵庫県尼崎市額田町7-40",
      "lat": 34.7434062,
      "lon": 135.447929
    },
    {
      "name": "やまや川西店",
      "address": "兵庫県川西市栄根2-21-3",
      "lat": 34.8217259,
      "lon": 135.4117726
    },
    {
      "name": "やまや北鈴蘭台店",
      "address": "兵庫県神戸市北区山田町小部字大脇山17-1",
      "lat": 34.7401431,
      "lon": 135.1596652
    },
    {
      "name": "やまや神戸藤原台店",
      "address": "兵庫県神戸市北区藤原台中町1-4-1ｽﾃｯﾌﾟｶﾞｰﾃﾞﾝ内",
      "lat": 34.8226884,
      "lon": 135.2175298
    },
    {
      "name": "やまや垂水店",
      "address": "兵庫県神戸市垂水区名谷町中坊12-1",
      "lat": 34.6514243,
      "lon": 135.068548
    },
    {
      "name": "やまや六甲道店",
      "address": "兵庫県神戸市灘区桜口町三丁目1番1号パニエ六甲1階",
      "lat": 34.7128295,
      "lon": 135.2407073
    },
    {
      "name": "やまや伊川谷店",
      "address": "兵庫県神戸市西区伊川谷町有瀬1298",
      "lat": 34.6631439,
      "lon": 135.0160597
    },
    {
      "name": "やまや芦屋店",
      "address": "兵庫県芦屋市宮塚町17-8",
      "lat": 34.7307833,
      "lon": 135.3121839
    },
    {
      "name": "やまや西宮北口店",
      "address": "兵庫県西宮市高木東町15-6",
      "lat": 34.7513025,
      "lon": 135.3639754
    },
    {
      "name": "やまや大和郡山店",
      "address": "奈良県大和郡山市九条町１８５番地１",
      "lat": 34.6580735,
      "lon": 135.787336
    },
    {
      "name": "やまや柳本店",
      "address": "奈良県天理市柳本町１９１－１",
      "lat": 34.5623346,
      "lon": 135.8447478
    },
    {
      "name": "やまや紀寺店",
      "address": "奈良県奈良市南肘塚町２０４－１",
      "lat": 34.66729950000001,
      "lon": 135.8328692
    },
    {
      "name": "やまや菅原店",
      "address": "奈良県奈良市菅原町637-1",
      "lat": 34.6869985,
      "lon": 135.772505
    },
    {
      "name": "やまや香芝五位堂店",
      "address": "奈良県香芝市別所42-5",
      "lat": 34.5322881,
      "lon": 135.7235663
    },
    {
      "name": "やまや岡山平井店",
      "address": "岡山県岡山市中区平井7-3-5",
      "lat": 34.6351552,
      "lon": 133.9484065
    },
    {
      "name": "やまや岡山今店",
      "address": "岡山県岡山市北区今3-26-1",
      "lat": 34.6498411,
      "lon": 133.8926085
    },
    {
      "name": "やまや府中店",
      "address": "広島県安芸郡府中町茂陰１－１０－２１",
      "lat": 34.3884723,
      "lon": 132.501812
    },
    {
      "name": "やまや吉田店",
      "address": "広島県安芸高田市吉田町大字常友甲１２１０番地１６号",
      "lat": 34.6604544,
      "lon": 132.6998224
    },
    {
      "name": "やまや城北白島店",
      "address": "広島県広島市中区西白島町１９－１９",
      "lat": 34.4057925,
      "lon": 132.4603908
    },
    {
      "name": "やまや五日市店",
      "address": "広島県広島市佐伯区八幡２－６－２２",
      "lat": 34.3915664,
      "lon": 132.3566857
    },
    {
      "name": "やまや東雲店",
      "address": "広島県広島市南区東雲一丁目８－１１",
      "lat": 34.3829895,
      "lon": 132.4887984
    },
    {
      "name": "やまや可部店",
      "address": "広島県広島市安佐北区可部５－１７－８",
      "lat": 34.5205479,
      "lon": 132.5080109
    },
    {
      "name": "やまや高陽店",
      "address": "広島県広島市安佐北区落合５－２８－３５",
      "lat": 34.4769159,
      "lon": 132.5221249
    },
    {
      "name": "やまや大町店",
      "address": "広島県広島市安佐南区大町東１－１２－１６",
      "lat": 34.4537465,
      "lon": 132.4681157
    },
    {
      "name": "やまやせせらぎ店",
      "address": "広島県広島市安佐南区川内５－１５－２２",
      "lat": 34.4693155,
      "lon": 132.484439
    },
    {
      "name": "やまや高取店",
      "address": "広島県広島市安佐南区高取北３－１－４４",
      "lat": 34.4737657,
      "lon": 132.4373591
    },
    {
      "name": "やまや船越店",
      "address": "広島県広島市安芸区船越南２－６－５",
      "lat": 34.373661,
      "lon": 132.521726
    },
    {
      "name": "やまや井口店",
      "address": "広島県広島市西区井口５－１９－１３",
      "lat": 34.3666756,
      "lon": 132.3797591
    },
    {
      "name": "やまや宮内店",
      "address": "広島県廿日市市宮内４－１１－２３",
      "lat": 34.3492633,
      "lon": 132.3118236
    },
    {
      "name": "やまや西条店",
      "address": "広島県東広島市西条上市町9-41",
      "lat": 34.4252574,
      "lon": 132.7474565
    },
    {
      "name": "やまや福山木之庄店",
      "address": "広島県福山市木之庄町1-4-25",
      "lat": 34.49532540000001,
      "lon": 133.3545506
    },
    {
      "name": "やまや新下関店",
      "address": "山口県下関市秋根西町2-2-13",
      "lat": 34.0073914,
      "lon": 130.9475076
    },
    {
      "name": "やまや古賀店",
      "address": "福岡県古賀市舞の里3-15-1",
      "lat": 33.7454435,
      "lon": 130.4879077
    },
    {
      "name": "やまや知古店",
      "address": "福岡県直方市知古3-1-44",
      "lat": 33.757724,
      "lon": 130.7220166
    },
    {
      "name": "やまや大名店",
      "address": "福岡県福岡市中央区大名一丁目２番１６号セシオパーク大名１階",
      "lat": 33.5857279,
      "lon": 130.3937937
    },
    {
      "name": "やまや福岡長浜店",
      "address": "福岡県福岡市中央区長浜2-3-20",
      "lat": 33.5929915,
      "lon": 130.3880125
    },
    {
      "name": "やまや大楠店",
      "address": "福岡県福岡市南区大楠1-35-14",
      "lat": 33.5737252,
      "lon": 130.4140817
    },
    {
      "name": "やまや今宿店",
      "address": "福岡県福岡市西区今宿3丁目40-1",
      "lat": 33.5815776,
      "lon": 130.2655112
    },
    {
      "name": "やまや姪浜小戸店",
      "address": "福岡県福岡市西区小戸3-50-1ホワイトパレス姪浜1F",
      "lat": 33.58665,
      "lon": 130.315014
    },
    {
      "name": "やまや福津店",
      "address": "福岡県福津市中央5-31-13",
      "lat": 33.7694046,
      "lon": 130.4842703
    },
    {
      "name": "やまや福岡志免店",
      "address": "福岡県糟谷郡志免町志免中央4-12-15",
      "lat": 33.5884013,
      "lon": 130.478007
    },
    {
      "name": "やまや那珂川店",
      "address": "福岡県那珂川市中原3-63",
      "lat": 33.5167649,
      "lon": 130.4364949
    }
  ]
}
